city,lat,lon,timestamp,pm2_5,pm10,no2,co,so2,o3,temp_day,temp_min,temp_max,humidity,pressure,wind_speed,wind_deg,clouds,road_count,industrial_count,dump_count,farmland_count
Nanjangud,12.12,76.68,2025-10-25 11:12:10+00:00,10.19,13.17,4.17,180.94,2.34,48.43,27.56,27.56,27.56,70,1008,5.68,256,65,,,,
Chittorgarh,24.879999,74.629997,2025-10-25 11:12:10+00:00,65.03,68.3,1.63,280.75,4.08,131.67,30.74,30.74,30.74,29,1009,4.19,43,0,17931.0,35.0,,73.0
Ratnagiri,16.994444,73.300003,2025-10-25 11:12:10+00:00,2.33,5.74,0.21,145.25,0.18,58.49,26.88,26.88,26.88,83,1006,6.48,165,100,5839.0,31.0,,78.0
Goregaon,19.155001,72.849998,2025-10-25 11:14:30+00:00,3.1,6.43,0.29,182.65,0.18,70.03,28.94,28.94,30.99,74,1006,4.63,210,75,35.0,,,
Pindwara,24.7945,73.055,2025-10-25 11:14:34+00:00,67.6,73.64,4.03,287.78,5.79,121.83,31.5,31.5,31.5,23,1008,4.04,58,0,3.0,,,
Raipur,21.25,81.629997,2025-10-25 11:14:37+00:00,14.32,15.62,3.47,219.61,2.44,35.83,27.07,27.07,27.07,69,1008,1.54,40,75,21806.0,61.0,,130.0
Gokak,16.1667,74.833298,2025-10-25 11:14:52+00:00,1.52,1.97,1.27,138.06,0.21,52.89,27.26,27.26,27.26,65,1007,6.3,197,93,,,,
Lucknow,26.85,80.949997,2025-10-25 11:14:54+00:00,87.67,94.76,3.77,393.2,3.58,124.61,31.05,31.05,31.05,33,1009,3.09,320,20,55874.0,63.0,,24.0
Delhi,28.679079,77.06971,2025-10-25 11:15:18+00:00,61.47,84.17,6.57,318.87,6.46,143.01,30.08,30.08,30.08,30,1009,2.06,270,20,160337.0,229.0,69.0,1134.0
Mumbai,19.07609,72.877426,2025-10-25 11:08:31+00:00,3.1,6.43,0.29,182.65,0.18,70.03,31.0,28.95,31.0,66,1006,4.63,210,75,39511.0,426.0,12.0,55.0
Sagar,14.16704,75.040298,2025-10-25 11:16:31+00:00,1.99,3.72,0.25,107.46,0.21,67.09,24.01,24.01,24.01,82,1008,4.31,206,95,21931.0,10.0,0.0,6.0
Jalpaiguri,26.540457,88.719391,2025-10-25 11:17:26+00:00,74.4,84.96,6.08,405.1,6.26,80.01,27.78,27.78,27.78,63,1008,1.61,264,3,40933.0,110.0,,181.0
Pakur,24.633568,87.849251,2025-10-25 11:17:49+00:00,192.21,207.66,13.08,572.85,37.34,156.81,30.19,30.19,30.19,54,1008,1.47,57,8,808.0,10.0,,0.0
Sardarshahar,28.440554,74.493011,2025-10-25 11:17:55+00:00,45.43,71.68,1.92,222.89,5.55,144.51,31.76,31.76,31.76,18,1010,3.9,46,0,1178.0,2.0,,1.0
Sirohi,24.882618,72.858894,2025-10-25 11:18:00+00:00,64.61,71.57,3.8,283.31,5.93,125.89,32.24,32.24,32.24,21,1008,4.78,45,0,3766.0,25.0,,23.0
Jaysingpur,16.779877,74.556374,2025-10-25 11:18:16+00:00,1.42,1.87,1.16,143.95,0.46,59.67,26.69,26.69,26.69,67,1007,4.6,218,97,,,,
Ramanagara,12.715035,77.281296,2025-10-25 11:18:18+00:00,17.91,23.16,8.81,264.25,3.18,71.49,26.59,26.59,26.59,69,1008,2.84,289,44,16038.0,45.0,0.0,171.0
Chikkaballapura,13.432515,77.727478,2025-10-25 11:18:48+00:00,5.4,6.84,2.93,146.01,1.08,66.55,24.22,24.22,24.22,65,1009,4.03,246,42,9527.0,24.0,,14.0
Channapatna,12.651805,77.208946,2025-10-25 11:19:04+00:00,17.91,23.16,8.81,264.25,3.18,71.49,26.91,26.91,26.91,69,1008,3.02,290,52,,,,
Surendranagar,22.728392,71.637077,2025-10-25 11:19:05+00:00,8.82,9.42,2.48,220.9,1.68,72.8,35.11,35.11,35.11,30,1005,6.83,69,36,17829.0,64.0,,4.0
Thiruvalla,9.383452,76.574059,2025-10-25 11:19:40+00:00,2.05,7.39,0.3,80.68,0.38,43.25,27.37,27.37,27.37,81,1008,1.78,247,89,4263.0,5.0,0.0,124.0
Ranebennur,14.623801,75.621788,2025-10-25 11:19:49+00:00,2.38,2.95,2.81,141.78,0.55,52.57,26.22,26.22,26.22,69,1008,5.57,228,70,,,,
Karaikal,10.92544,79.838005,2025-10-25 11:19:50+00:00,14.36,16.61,5.16,186.41,1.56,41.14,30.74,30.74,30.74,66,1006,2.4,2,84,415.0,1.0,,1.0
Belgaum,15.852792,74.498703,2025-10-25 11:19:54+00:00,1.46,2.63,0.34,116.77,0.2,71.74,25.93,25.93,25.93,69,1008,4.12,200,75,,,,
Chatrapur,19.354979,84.986732,2025-10-25 11:19:55+00:00,4.96,6.45,0.31,211.63,0.21,60.04,28.09,28.09,28.09,73,1008,3.31,98,13,,,,
Suri,23.905445,87.52462,2025-10-25 11:19:57+00:00,172.86,185.51,4.83,442.93,14.99,127.23,29.11,29.11,29.11,59,1008,1.24,36,3,53.0,,,
Bhubaneswar,20.296059,85.824539,2025-10-25 11:20:01+00:00,5.73,6.84,0.21,212.5,0.14,60.79,27.98,25.96,27.98,69,1008,3.6,120,75,14215.0,7.0,1.0,1.0
Mahuva,21.105001,71.771645,2025-10-25 11:20:10+00:00,11.13,12.73,2.92,251.28,2.11,68.5,28.62,28.62,28.62,68,1006,4.7,77,100,843.0,4.0,,0.0
Jagadhri,30.172716,77.299492,2025-10-25 11:20:13+00:00,60.29,75.59,14.74,437.1,12.55,119.39,28.5,28.5,28.5,44,1010,1.2,290,0,10443.0,89.0,,0.0
Barh,25.477585,85.709091,2025-10-25 11:20:19+00:00,112.13,122.18,5.0,407.3,8.31,104.04,31.82,31.82,31.82,43,1008,1.51,290,57,5935.0,5.0,0.0,5.0
Bhusawal,21.045521,75.801094,2025-10-25 11:20:33+00:00,9.1,9.72,3.62,273.49,0.6,41.31,26.09,26.09,26.09,78,1007,2.64,38,99,5625.0,9.0,,0.0
Alipurduar,26.49189,89.5271,2025-10-25 11:20:38+00:00,64.59,74.29,9.1,412.97,2.04,74.28,26.95,26.95,26.95,68,1008,1.81,311,1,2863.0,67.0,,224.0
Kollam,8.893212,76.614143,2025-10-25 11:20:53+00:00,1.81,7.14,0.3,81.37,0.39,43.78,26.78,26.78,26.78,83,1008,3.09,271,95,42537.0,94.0,1.0,823.0
Medinipur,22.430889,87.321487,2025-10-25 11:21:19+00:00,59.4,63.71,1.78,263.3,3.27,69.97,28.97,28.97,28.97,60,1008,1.96,64,27,7958.0,71.0,,64.0
Patan,23.849325,72.126625,2025-10-25 11:21:45+00:00,65.56,71.15,1.54,255.79,6.13,141.07,35.27,35.27,35.27,19,1006,4.18,63,0,8411.0,14.0,0.0,18.0
Mettur,11.786253,77.800781,2025-10-25 11:22:19+00:00,4.74,6.69,7.06,190.96,1.52,43.42,29.42,29.41,30.64,67,1007,0.81,195,59,5287.0,13.0,,0.0
Huliyar,13.583274,76.540154,2025-10-25 11:22:29+00:00,4.97,6.2,1.5,133.48,0.64,61.61,27.44,27.44,27.44,58,1007,4.77,240,63,,,,
Harihar,14.530457,75.801094,2025-10-25 11:22:31+00:00,2.78,3.47,2.53,138.57,0.6,52.27,27.29,27.29,27.29,64,1007,4.5,230,77,,,,
Rasayani,18.901457,73.176132,2025-10-25 11:22:36+00:00,2.84,5.89,0.38,177.19,0.19,69.11,27.38,27.38,27.38,77,1006,3.9,181,96,,,,
Haringhata,22.96051,88.567406,2025-10-25 11:22:38+00:00,63.74,73.04,5.31,359.4,7.04,97.88,30.6,30.6,30.6,52,1008,1.51,79,5,2000.0,25.0,,12.0
Kushtagi,15.756595,76.192696,2025-10-25 11:22:45+00:00,0.84,1.19,1.98,136.39,0.29,57.17,28.05,28.05,28.05,54,1007,3.82,176,45,,,,
Jadugora,22.656015,86.352882,2025-10-25 11:22:47+00:00,118.02,124.12,1.87,321.9,10.45,127.66,30.28,30.28,30.28,55,1008,2.14,109,10,,,,
Orai,25.989836,79.450035,2025-10-25 11:22:48+00:00,74.39,78.01,2.33,326.1,7.37,116.18,30.53,30.53,30.53,41,1009,3.46,99,5,7284.0,1.0,1.0,0.0
Surajpur,23.223047,82.87056,2025-10-25 11:22:54+00:00,186.59,203.29,23.34,423.19,43.68,67.04,25.74,25.74,25.74,60,1009,1.62,274,92,1550.0,2.0,1.0,11.0
Ambernath,19.186354,73.191948,2025-10-25 11:23:07+00:00,2.78,5.99,0.44,180.11,0.2,69.46,27.54,27.54,27.54,78,1005,4.23,198,86,1550.0,16.0,,0.0
Malerkotla,30.525005,75.890121,2025-10-25 11:23:12+00:00,58.92,77.67,5.64,341.98,11.73,153.13,30.89,30.89,30.89,25,1010,2.39,350,0,8916.0,14.0,,0.0
Jorapokhar,22.422455,85.760651,2025-10-25 11:23:22+00:00,103.19,109.17,3.66,301.3,12.3,103.28,27.83,27.83,27.83,60,1009,1.46,81,11,1823.0,6.0,,0.0
Vizianagaram,18.106659,83.395554,2025-10-25 11:23:27+00:00,6.51,8.33,1.41,212.46,2.1,67.4,27.17,27.17,27.17,81,1008,3.77,94,88,3265.0,4.0,2.0,1.0
Durg,21.190449,81.28492,2025-10-25 11:23:32+00:00,7.62,8.26,1.58,206.12,1.28,33.59,26.99,26.99,26.99,71,1008,3.04,12,77,30797.0,24.0,,13.0
Himmatnagar,23.597969,72.969818,2025-10-25 11:23:51+00:00,41.65,44.42,3.03,258.77,5.84,120.38,33.78,33.78,33.78,31,1006,3.27,37,1,,,,
Sambhal,28.590361,78.571762,2025-10-25 11:23:53+00:00,81.28,104.71,11.46,444.7,10.41,139.51,29.33,29.33,29.33,32,1010,0.62,354,0,10360.0,23.0,,1.0
Harnaut,25.369179,85.53006,2025-10-25 11:24:06+00:00,114.58,124.28,4.48,379.2,9.13,107.6,30.97,30.97,30.97,47,1008,1.52,240,60,187.0,1.0,,1.0
Port Blair,11.623377,92.726486,2025-10-25 11:24:11+00:00,1.79,4.43,0.23,89.62,0.13,30.32,26.88,26.88,26.88,78,1005,4.12,140,75,,,,
Suti,24.618393,88.024338,2025-10-25 11:24:12+00:00,193.5,209.88,11.46,545.55,32.95,161.43,30.27,30.27,30.27,54,1008,2.07,46,6,70.0,,,
Banswara,23.546757,74.43383,2025-10-25 11:24:16+00:00,22.32,23.16,2.08,249.61,1.63,79.79,33.11,33.11,33.11,37,1006,2.23,60,53,3857.0,4.0,,0.0
Manikchak,25.077787,87.900375,2025-10-25 11:24:45+00:00,192.94,206.49,7.41,547.09,31.91,155.58,30.09,30.09,30.09,55,1008,1.39,77,27,1277.0,,,
Roorkee,29.854263,77.888,2025-10-25 11:24:51+00:00,102.95,135.66,32.21,827.03,36.41,130.14,28.18,28.18,28.18,42,1010,0.86,302,0,6854.0,73.0,3.0,3.0
Kavali,14.913181,79.992981,2025-10-25 11:25:04+00:00,20.71,22.53,4.54,283.65,0.89,34.81,28.9,28.9,28.9,68,1007,3.71,86,86,1594.0,1.0,,1.0
Dharmavaram,14.413745,77.712616,2025-10-25 11:25:09+00:00,5.87,7.25,4.01,179.12,0.92,61.05,30.58,30.58,30.58,49,1007,0.32,292,77,2520.0,2.0,,0.0
Siddipet,18.101904,78.852074,2025-10-25 11:25:16+00:00,4.72,5.62,2.1,204.12,0.76,48.81,25.97,25.97,25.97,78,1008,3.0,108,95,13264.0,11.0,,12.0
Dhanpuri,23.173939,81.565125,2025-10-25 11:25:30+00:00,175.2,180.69,3.26,326.54,8.17,87.04,24.09,24.09,24.09,69,1010,1.38,204,100,116.0,,,
Chirala,15.812074,80.355377,2025-10-25 11:25:34+00:00,6.61,7.69,1.91,229.35,0.85,47.31,28.27,28.27,28.27,78,1007,2.72,136,100,1188.0,4.0,,7.0
Markapur,15.764501,79.259491,2025-10-25 11:25:44+00:00,19.85,21.64,6.21,248.6,5.24,38.0,28.38,28.38,28.38,72,1007,2.41,101,86,1941.0,1.0,,0.0
Chalakudy,10.311879,76.331978,2025-10-25 11:25:48+00:00,2.01,4.69,0.39,79.73,0.31,35.83,29.95,29.95,29.95,70,1008,4.12,250,40,,,,
Gondal,21.961946,70.792297,2025-10-25 11:25:50+00:00,11.89,12.82,3.59,244.54,2.62,67.02,32.55,32.55,32.55,41,1005,3.57,86,97,,,,
Bhimavaram,16.544893,81.52124,2025-10-25 11:25:51+00:00,5.85,7.43,0.7,217.09,1.06,70.5,28.58,28.58,28.58,78,1007,2.46,98,84,3203.0,6.0,,1.0
Jalgaon Jamod,21.04954,76.532028,2025-10-25 11:25:56+00:00,8.58,9.11,4.69,285.05,0.73,35.12,25.14,25.14,25.14,81,1008,2.26,112,93,280.0,1.0,,0.0
Paltan Bazaar,26.182245,91.754723,2025-10-25 11:26:00+00:00,52.18,57.0,4.22,282.54,1.91,79.18,29.97,29.97,29.97,70,1008,1.03,70,40,,,,
Hodal,27.897551,77.384117,2025-10-25 11:26:02+00:00,66.5,86.6,6.78,338.95,5.8,135.9,30.99,30.99,30.99,22,1009,0.8,214,0,198.0,,,
Ausa,18.245655,76.505356,2025-10-25 11:26:05+00:00,4.89,5.39,4.89,222.6,1.1,48.4,27.13,27.13,27.13,62,1007,4.11,174,90,1210.0,5.0,0.0,0.0
Mahidpur,23.486839,75.659157,2025-10-25 11:26:09+00:00,8.92,9.24,1.37,240.76,0.69,68.88,27.33,27.33,27.33,58,1008,3.8,135,70,473.0,,,
Gurdaspur,32.041943,75.405334,2025-10-25 11:26:14+00:00,85.36,116.88,11.2,627.68,12.61,151.05,28.75,28.75,28.75,35,1010,2.26,341,0,24044.0,14.0,0.0,2.0
Domchanch,24.47438,85.688744,2025-10-25 11:26:30+00:00,125.69,136.54,6.23,399.16,15.18,119.28,27.66,27.66,27.66,52,1009,2.06,5,63,168.0,4.0,,0.0
Barjora,23.427221,87.287018,2025-10-25 11:26:33+00:00,159.91,169.74,6.93,438.33,21.03,141.35,29.08,29.08,29.08,58,1008,2.83,97,3,2567.0,1.0,,0.0
Saint Dnyaneshwar Garden and Paithan park,19.487707,75.380768,2025-10-25 11:26:41+00:00,1.44,1.87,3.12,215.85,0.39,42.79,28.08,28.08,28.08,64,1007,3.01,130,69,,,,
Sinnar,19.85306,74.000633,2025-10-25 11:26:43+00:00,6.34,7.76,9.53,295.89,5.84,32.53,25.76,25.76,25.76,68,1007,3.64,124,89,,,,
Guntakal,15.167409,77.373627,2025-10-25 11:26:44+00:00,3.71,4.65,2.11,154.7,0.38,59.79,29.04,29.04,29.04,55,1007,3.81,194,74,2512.0,3.0,,0.0
Lalgola,24.417534,88.250343,2025-10-25 11:26:49+00:00,192.53,210.53,10.58,515.63,29.08,188.21,29.75,29.75,29.75,56,1008,2.65,34,6,139.0,0.0,,1.0
Hoshangabad,22.744108,77.736969,2025-10-25 11:26:52+00:00,14.2,14.78,5.1,253.73,1.8,45.85,24.21,24.21,24.21,72,1009,1.67,166,91,1808.0,1.0,,0.0
Proddatur,14.752805,78.552757,2025-10-25 11:26:57+00:00,7.6,9.2,4.75,209.7,1.18,54.92,31.67,31.67,31.67,51,1006,1.1,214,64,1859.0,1.0,,2.0
Pali,25.771315,73.323685,2025-10-25 11:27:01+00:00,49.96,61.49,1.73,220.76,5.19,143.63,32.9,32.9,32.9,17,1008,5.11,57,0,21177.0,19.0,,65.0
Palwal,28.148735,77.332024,2025-10-25 11:27:34+00:00,62.24,83.36,7.95,340.83,5.19,130.0,30.87,30.87,30.87,22,1009,0.65,259,0,16225.0,20.0,,2.0
Gohana,29.138407,76.693245,2025-10-25 11:27:48+00:00,53.42,70.09,5.22,281.77,6.98,143.41,30.18,30.18,30.18,24,1010,1.82,59,0,2615.0,2.0,,0.0
Munger,25.37571,86.474373,2025-10-25 11:27:53+00:00,160.54,175.77,5.85,533.17,17.84,128.27,31.66,31.66,31.66,44,1008,0.51,299,24,9739.0,2.0,,3.0
Yavatmal,20.388794,78.120407,2025-10-25 11:28:04+00:00,4.54,4.9,2.62,248.73,0.49,44.09,26.37,26.37,26.37,72,1008,2.26,35,95,17602.0,22.0,,34.0
Bokaro Steel City,23.669296,86.151115,2025-10-25 11:28:51+00:00,160.0,169.59,4.45,448.35,17.29,119.15,30.02,30.02,30.02,49,1008,2.13,39,10,,,,
Jetpur,21.761524,70.627625,2025-10-25 11:28:52+00:00,12.76,13.9,3.25,257.86,2.05,68.92,32.92,32.92,32.92,42,1005,5.58,103,100,870.0,17.0,,1.0
Basirhat,22.657402,88.86718,2025-10-25 11:28:55+00:00,14.74,18.55,1.22,228.18,1.66,65.94,30.14,30.14,30.14,58,1008,1.74,33,9,,,,
Konnagar,22.700474,88.319069,2025-10-25 11:28:57+00:00,36.2,43.6,4.41,318.78,4.45,99.44,30.97,30.97,30.97,58,1008,3.09,40,40,,,,
Ranchi,23.344315,85.296013,2025-10-25 11:28:58+00:00,161.15,170.28,6.95,491.68,15.64,119.05,25.95,25.95,25.95,65,1010,2.06,110,75,46411.0,95.0,,10.0
Gudur,14.146319,79.850388,2025-10-25 11:29:26+00:00,36.0,40.24,10.8,455.71,1.6,28.17,29.61,29.61,29.61,68,1007,3.87,56,73,143.0,2.0,,0.0
Gola Gokarannath,28.078636,80.471588,2025-10-25 11:29:30+00:00,96.17,117.29,9.98,419.7,22.41,175.46,26.83,26.83,26.83,38,1009,2.04,312,0,,,,
Shikohabad,27.108416,78.584602,2025-10-25 11:29:31+00:00,81.73,92.55,3.18,354.91,7.11,128.87,31.05,31.05,31.05,25,1009,1.3,11,0,2129.0,11.0,1.0,9.0
Tirumangalam,9.823619,77.986565,2025-10-25 11:29:38+00:00,5.05,6.77,4.63,149.66,1.98,27.65,34.04,34.04,34.04,49,1006,2.06,160,40,,,,
Anakaputhur,12.946366,79.959244,2025-10-25 11:29:39+00:00,23.47,27.32,15.76,355.86,8.65,23.46,28.81,28.81,28.81,52,1006,2.31,29,44,,,,
Suryapet,17.143908,79.623924,2025-10-25 11:29:41+00:00,9.76,10.5,1.94,223.9,0.5,44.27,28.15,28.15,28.15,77,1007,2.9,120,90,9324.0,21.0,0.0,14.0
Udupi,13.340881,74.742142,2025-10-25 11:29:57+00:00,1.76,3.88,0.21,95.6,0.2,52.81,26.86,26.86,26.86,82,1008,5.32,179,98,20302.0,20.0,,223.0
Nandyal,15.478569,78.483093,2025-10-25 11:30:16+00:00,15.44,16.99,5.99,236.52,2.28,58.52,27.46,27.46,27.46,72,1007,3.21,90,83,14864.0,23.0,3.0,11.0
Begusarai,25.416676,86.129379,2025-10-25 11:30:55+00:00,121.99,134.25,7.43,465.1,9.1,94.6,29.95,29.95,29.95,43,1008,1.37,291,44,17423.0,9.0,,4.0
Contai,21.779188,87.744629,2025-10-25 11:31:10+00:00,4.95,5.87,0.17,197.24,0.11,53.47,27.47,27.47,27.47,69,1008,0.32,261,8,,,,
Naya Raipur,21.164993,81.775307,2025-10-25 11:31:11+00:00,10.13,11.25,3.3,202.19,1.31,26.66,26.97,26.97,26.97,69,1009,1.54,40,75,,,,
Payradanga,23.125587,88.546867,2025-10-25 11:31:13+00:00,94.4,108.15,8.81,462.27,9.13,87.09,28.42,28.42,28.42,53,1008,1.58,101,3,,,,
Maheshtala,22.511976,88.250992,2025-10-25 11:31:14+00:00,21.11,25.23,2.72,258.65,2.46,75.59,30.99,30.99,30.99,50,1008,0.78,33,30,3845.0,23.0,,0.0
Vaniyambadi,12.695032,78.621887,2025-10-25 11:31:31+00:00,28.85,35.88,21.0,376.65,12.11,38.6,26.54,26.54,26.54,70,1008,1.92,249,48,3097.0,1.0,,3.0
Shahdol,23.302189,81.356804,2025-10-25 11:31:36+00:00,190.82,195.01,4.74,337.97,6.4,73.13,23.78,23.78,23.78,67,1010,0.9,203,99,6992.0,10.0,,1260.0
Aruppukkottai,9.515625,78.100014,2025-10-25 11:32:01+00:00,6.03,8.41,9.06,193.4,2.23,11.16,30.55,30.55,30.55,63,1007,2.92,200,65,1455.0,36.0,,2.0
Salipur,20.484348,86.119194,2025-10-25 11:32:06+00:00,8.82,10.68,1.02,227.58,0.37,53.76,26.47,26.47,26.47,80,1009,3.17,115,69,,,,
Sasaram,24.953514,84.011787,2025-10-25 11:32:09+00:00,100.23,106.42,2.1,294.31,2.97,89.19,26.5,26.5,26.5,63,1009,1.54,42,83,2524.0,0.0,,5.0
Bihta,25.563322,84.869804,2025-10-25 11:32:16+00:00,108.74,118.85,4.97,397.37,4.94,86.81,29.93,29.93,29.93,53,1009,2.27,220,64,786.0,3.0,,0.0
Dahod,22.835602,74.255989,2025-10-25 11:32:22+00:00,9.23,9.74,4.72,229.64,1.57,49.5,27.41,27.41,27.41,61,1008,4.77,128,79,4573.0,5.0,,6.0
Najibabad,29.607981,78.342674,2025-10-25 11:32:35+00:00,117.67,156.29,42.06,995.35,33.19,117.64,23.9,23.9,23.9,50,1010,1.66,358,0,1467.0,7.0,0.0,3.0
Bagaha,27.122196,84.072235,2025-10-25 11:32:40+00:00,87.68,103.24,14.22,561.7,6.61,64.96,26.02,26.02,26.02,53,1009,3.09,287,0,1455.0,0.0,,11.0
Jamalpur,25.312717,86.490608,2025-10-25 11:32:45+00:00,163.61,179.78,7.25,563.07,14.92,110.26,28.92,28.92,28.92,48,1008,1.07,212,29,1306.0,2.0,,0.0
Fatehpur,25.920074,80.809998,2025-10-25 11:32:49+00:00,75.48,79.94,3.68,336.99,7.24,108.66,28.58,28.58,28.58,49,1009,2.77,24,15,5346.0,7.0,,9.0
Dindigul,10.365581,77.970657,2025-10-25 11:33:13+00:00,6.31,8.54,6.68,174.18,1.95,24.73,26.81,26.81,26.81,79,1008,2.7,328,77,35050.0,116.0,,69.0
Chakradharpur,22.668312,85.625511,2025-10-25 11:33:40+00:00,121.62,128.42,3.48,324.36,7.62,83.28,25.52,25.52,25.52,62,1009,0.42,173,10,286.0,0.0,,2.0
Porbandar,21.640575,69.605965,2025-10-25 11:33:44+00:00,19.12,21.98,2.74,285.42,1.53,73.26,28.86,28.86,28.86,74,1005,6.23,157,100,10936.0,16.0,,23.0
Ghatal,22.663696,87.746803,2025-10-25 11:33:53+00:00,42.4,45.97,1.75,255.99,3.01,86.15,27.36,27.36,27.36,59,1008,1.86,338,17,105.0,0.0,,3.0
Khidirpur,22.542061,88.318954,2025-10-25 11:33:56+00:00,21.11,25.23,2.72,258.65,2.46,75.59,30.97,30.97,30.97,58,1008,3.09,40,40,,,,
Mandya,12.523731,76.894684,2025-10-25 11:33:58+00:00,20.42,27.69,15.14,328.76,4.55,47.5,23.96,23.96,23.96,78,1009,4.17,252,78,21703.0,43.0,0.0,10.0
Dahanu,19.990751,72.743675,2025-10-25 11:34:21+00:00,3.19,6.04,0.66,189.81,0.67,66.43,27.29,27.29,27.29,81,1006,4.86,217,94,,,,
Sri Muktsar Sahib,30.480042,74.518204,2025-10-25 11:34:23+00:00,52.2,84.45,7.89,315.7,9.92,118.17,28.68,28.68,28.68,23,1010,2.62,50,0,4495.0,11.0,,0.0
Kanchipuram,12.834174,79.703644,2025-10-25 11:34:33+00:00,28.75,33.64,21.59,434.63,5.52,19.01,30.26,30.26,30.26,59,1007,1.94,43,38,25096.0,279.0,,46.0
Dhanpur,22.633492,74.095993,2025-10-25 11:34:47+00:00,5.4,5.78,5.03,212.77,1.81,43.45,27.02,27.02,27.02,68,1008,3.33,125,73,26.0,,,
Bengaluru,12.971599,77.594566,2025-10-25 11:34:55+00:00,12.38,15.99,7.98,221.9,2.34,70.69,26.85,26.85,26.85,67,1009,2.06,220,40,146113.0,624.0,20.0,353.0
Muzaffarnagar,29.471397,77.696732,2025-10-25 11:36:55+00:00,84.22,111.69,37.53,768.32,18.35,115.4,25.35,25.35,25.35,37,1010,0.58,357,0,18361.0,46.0,,37.0
Chhatarpur,24.916355,79.581184,2025-10-25 11:38:17+00:00,77.99,80.33,2.93,335.81,8.81,81.82,27.28,27.28,27.28,56,1009,3.66,30,76,21861.0,9.0,0.0,37.0
Bongaigaon,26.500999,90.535233,2025-10-25 11:38:45+00:00,59.62,68.22,7.14,364.5,1.7,60.45,25.2,25.2,25.2,71,1009,1.32,345,0,1448.0,8.0,,0.0
RAK Tiles,31.604889,76.919533,2025-10-25 11:38:50+00:00,47.53,63.78,14.05,437.99,5.67,93.64,18.93,18.93,18.93,58,1014,0.64,307,0,,,,
Nilanga,18.125875,76.750969,2025-10-25 11:38:51+00:00,4.96,5.41,5.81,223.05,1.06,51.14,25.35,25.35,25.35,71,1008,3.45,185,92,1170.0,0.0,,16.0
Amreli,21.603176,71.222084,2025-10-25 11:38:56+00:00,14.77,15.5,3.35,247.96,2.79,76.99,31.2,31.2,31.2,49,1006,7.06,100,100,5591.0,68.0,,15.0
Bulandshahar,28.411331,77.848434,2025-10-25 11:39:12+00:00,72.11,96.2,17.46,456.58,6.3,108.33,27.62,27.62,27.62,29,1010,0.36,224,0,,,,
Kharagpur,22.34601,87.231972,2025-10-25 11:39:13+00:00,33.0,36.69,2.95,248.55,1.94,47.38,27.13,27.13,27.13,61,1009,1.94,74,14,1894.0,0.0,,2.0
Arrah,25.556044,84.660332,2025-10-25 11:39:19+00:00,99.55,108.78,5.0,367.71,4.05,84.79,28.12,28.12,28.12,53,1009,2.09,217,63,3468.0,0.0,,3.0
Seoni,22.086868,79.543488,2025-10-25 11:39:25+00:00,39.64,41.84,10.48,328.93,10.54,63.24,22.06,22.06,22.06,80,1011,1.73,45,93,19399.0,7.0,,2.0
Siliguri,26.732311,88.410286,2025-10-25 11:39:59+00:00,76.19,89.72,9.43,473.59,5.96,64.42,24.63,24.63,24.63,69,1010,2.03,314,3,6172.0,23.0,1.0,1.0
Mangaluru,12.915605,74.855965,2025-10-25 11:40:05+00:00,1.8,3.93,0.25,91.36,0.21,46.66,24.51,24.51,24.51,94,1008,2.06,180,75,,,,
Kandi,23.9468,88.049713,2025-10-25 11:40:07+00:00,189.95,210.11,11.91,607.47,12.49,90.01,28.23,28.23,28.23,56,1008,1.97,328,1,112.0,1.0,,0.0
Khammam,17.247253,80.151443,2025-10-25 11:40:11+00:00,12.71,13.85,4.77,277.55,1.17,44.52,26.43,26.43,26.43,84,1008,2.34,92,56,25729.0,20.0,1.0,19.0
Morshi,21.324196,78.013832,2025-10-25 11:40:43+00:00,12.73,13.3,6.14,279.57,1.18,42.37,23.45,23.45,23.45,87,1010,2.69,86,89,1434.0,0.0,,1.0
Vijaypur,32.564522,75.023148,2025-10-25 11:40:48+00:00,116.51,166.59,31.57,1109.29,14.37,120.18,24.81,24.81,24.81,42,1011,2.19,313,0,139.0,,,
Santha,26.994154,83.034798,2025-10-25 11:40:53+00:00,99.74,117.16,11.92,546.31,7.09,72.8,27.01,27.01,27.01,46,1009,2.18,302,0,,,,
Chalisgaon,20.464079,74.996857,2025-10-25 11:40:54+00:00,6.41,7.58,4.14,262.96,1.46,42.47,25.63,25.63,25.63,80,1008,3.36,69,98,1244.0,2.0,,1.0
Etawah,26.811712,79.004692,2025-10-25 11:40:59+00:00,82.26,90.1,5.42,381.53,4.69,111.79,28.0,28.0,28.0,35,1009,2.11,17,1,14946.0,9.0,,9.0
Simlapal,22.916706,87.070351,2025-10-25 11:41:13+00:00,112.42,119.35,5.6,349.68,11.93,84.53,27.1,27.1,27.1,60,1009,2.8,89,7,1543.0,,,
Lakhimpur,27.94908,80.782402,2025-10-25 11:41:21+00:00,101.76,123.38,14.34,492.27,16.92,130.83,24.69,24.69,24.69,39,1010,2.28,324,1,34609.0,17.0,,82.0
Masaurhi,25.35128,85.031143,2025-10-25 11:42:08+00:00,114.24,123.95,4.4,383.07,6.36,93.63,29.94,29.94,29.94,53,1009,2.16,225,67,148.0,,,
Bhatta,23.00795,72.553757,2025-10-25 11:42:12+00:00,24.81,26.7,3.12,244.47,3.16,95.12,33.05,33.05,33.05,46,1006,4.63,70,40,,,,
Sultanpur,26.264776,82.072708,2025-10-25 11:42:14+00:00,97.38,107.55,6.48,458.14,9.99,124.63,27.87,27.87,27.87,46,1009,2.07,23,0,22385.0,4.0,,1.0
Kotulpur,23.012794,87.593948,2025-10-25 11:42:36+00:00,109.49,116.75,4.5,357.7,10.66,109.36,26.83,26.83,26.83,62,1009,1.25,356,7,129.0,,,
Pithampur,22.610683,75.680862,2025-10-25 11:42:42+00:00,5.61,6.2,4.6,248.05,2.16,45.47,25.89,25.89,25.89,73,1010,3.09,80,40,1373.0,10.0,,0.0
Bela Pratapgarh,25.912968,81.991653,2025-10-25 11:42:49+00:00,82.95,88.4,4.7,399.2,8.1,115.91,28.35,28.35,28.35,48,1009,2.51,26,35,,,,
Ghazipur,25.584042,83.577019,2025-10-25 11:42:50+00:00,86.6,94.23,9.57,364.61,18.45,101.49,28.28,28.28,28.28,53,1009,2.68,166,68,19301.0,23.0,,1.0
Buxar,25.564711,83.977745,2025-10-25 11:43:07+00:00,89.99,97.66,5.13,347.15,7.84,89.76,27.62,27.62,27.62,57,1009,2.65,186,67,2435.0,,,
Baran,25.101145,76.513161,2025-10-25 11:43:14+00:00,68.19,70.71,2.01,288.65,4.42,122.13,28.96,28.96,28.96,43,1009,3.18,35,61,4430.0,4.0,,0.0
Saideep Enterprises,19.969227,73.743195,2025-10-25 11:43:40+00:00,4.27,5.93,8.09,249.8,5.76,41.58,24.76,24.76,24.76,76,1008,1.46,173,91,,,,
Hazaribagh,23.99662,85.36911,2025-10-25 11:43:41+00:00,143.85,153.33,2.7,394.03,6.84,77.26,23.4,23.4,23.4,58,1010,1.84,90,86,22157.0,52.0,,0.0
Rudrapur,28.978298,79.399612,2025-10-25 11:44:03+00:00,103.94,129.16,12.97,521.34,15.31,123.05,28.15,28.15,28.15,61,1010,1.03,340,0,4809.0,,,
Success Point,20.112093,79.118698,2025-10-25 11:44:11+00:00,9.97,11.05,5.98,264.05,3.56,42.03,25.63,25.63,25.63,83,1008,2.61,79,33,,,,
Balaghat,21.812876,80.18383,2025-10-25 11:44:13+00:00,44.72,46.17,6.82,337.63,7.39,71.06,24.57,24.57,24.57,73,1010,1.59,20,94,5128.0,4.0,,81.0
Thodupuzha,9.897157,76.713409,2025-10-25 11:44:43+00:00,2.05,4.99,0.62,81.86,0.44,35.66,25.22,25.22,25.22,92,1009,0.7,219,84,5164.0,6.0,,126.0
Kothagudem,17.554356,80.619736,2025-10-25 11:44:49+00:00,24.39,27.02,7.96,312.91,4.54,43.25,26.49,26.49,26.49,83,1008,0.38,117,58,10490.0,11.0,,9.0
Debra,22.369043,87.55442,2025-10-25 11:45:10+00:00,25.17,27.84,1.85,229.11,1.52,54.97,27.33,27.33,27.33,59,1009,1.35,5,11,3295.0,0.0,,1.0
Khambhat,22.318083,72.618988,2025-10-25 11:45:16+00:00,20.08,21.4,23.78,324.28,24.49,35.32,30.26,30.26,30.26,61,1006,5.75,111,54,,,,
Kalaburagi,17.320486,76.839752,2025-10-25 11:45:18+00:00,5.93,6.83,11.5,251.37,1.64,36.77,27.01,27.01,27.01,62,1007,2.55,161,99,23779.0,43.0,,189.0
Palampur,32.110542,76.536224,2025-10-25 11:45:51+00:00,57.31,78.68,12.04,445.58,6.42,109.68,16.75,16.75,16.75,71,1015,0.66,344,14,921.0,1.0,,5.0
Bargarh,21.342585,83.624199,2025-10-25 11:45:57+00:00,21.57,23.46,1.95,208.28,1.12,48.56,26.74,26.74,26.74,67,1009,1.69,28,26,9577.0,192.0,,68.0
Jaunpur,25.748695,82.698441,2025-10-25 11:46:22+00:00,73.2,77.44,3.58,368.31,11.96,92.98,29.27,29.27,29.27,46,1009,1.88,123,65,25629.0,3.0,,6.0
Bahraich,27.570839,81.598022,2025-10-25 11:46:45+00:00,107.24,129.74,14.94,564.19,18.88,141.41,26.15,26.15,26.15,47,1010,3.01,311,0,25666.0,87.0,,52.0
Shegaon,20.792713,76.694328,2025-10-25 11:47:09+00:00,6.57,7.14,5.12,263.29,1.13,32.95,25.75,25.75,25.75,77,1008,2.36,78,95,1266.0,,,
Ballari,15.139393,76.92144,2025-10-25 11:47:13+00:00,1.87,3.16,4.56,158.73,0.75,50.36,27.11,27.11,27.11,65,1007,2.4,140,98,17964.0,66.0,,6.0
Hapur,28.730579,77.775879,2025-10-25 11:47:34+00:00,68.76,93.23,19.82,461.74,5.99,106.17,26.77,26.77,26.77,31,1010,1.69,27,0,12792.0,24.0,,2.0
Kashipur,29.210421,78.96183,2025-10-25 11:47:50+00:00,104.71,130.56,16.79,580.46,18.97,129.09,23.77,23.77,23.77,48,1010,1.48,351,0,8131.0,28.0,0.0,14.0
Sikandra,26.367811,79.629158,2025-10-25 11:47:56+00:00,73.69,78.17,2.22,323.27,4.62,131.24,28.07,28.07,28.07,50,1009,1.73,74,7,424.0,,,
Palakkad,10.784703,76.653145,2025-10-25 11:48:00+00:00,4.56,7.2,7.35,153.31,2.31,28.05,25.48,25.48,25.48,88,1009,4.27,274,22,27257.0,81.0,0.0,1878.0
Almora,29.594189,79.653893,2025-10-25 11:48:34+00:00,108.15,130.87,13.3,545.69,18.31,113.23,15.56,15.56,15.56,78,1014,2.09,216,2,1880.0,0.0,,7.0
Dhar,22.601292,75.302467,2025-10-25 11:48:53+00:00,6.42,6.82,5.23,241.91,2.34,46.65,23.63,23.63,23.63,80,1009,3.41,119,91,4223.0,27.0,0.0,7.0
Ameerpet,17.437462,78.448288,2025-10-25 11:49:13+00:00,11.39,12.48,3.87,229.43,2.64,57.17,23.01,23.01,24.51,94,1008,1.03,270,75,,,,
Georai,19.263334,75.752426,2025-10-25 11:49:15+00:00,1.26,1.74,3.03,211.95,0.55,41.22,27.16,27.16,27.16,71,1007,2.77,141,80,1468.0,4.0,,2.0
Kodad,16.99708,79.967361,2025-10-25 11:49:20+00:00,9.85,10.68,2.91,240.36,0.48,48.51,26.49,26.49,26.49,84,1008,2.31,137,48,,,,
Kalaigaon,26.57448,91.975243,2025-10-25 11:49:22+00:00,34.64,38.49,3.39,236.79,0.72,46.03,25.61,25.61,25.61,62,1008,2.53,59,0,23.0,,,
Newasa,19.551146,74.928162,2025-10-25 11:49:28+00:00,2.86,4.06,7.06,259.36,1.3,35.41,26.84,26.84,26.84,70,1007,3.2,119,100,5.0,0.0,,2.0
Jalgaon,21.004194,75.563942,2025-10-25 11:49:35+00:00,8.08,8.79,3.63,269.54,0.53,41.87,25.89,25.89,25.89,78,1008,3.23,70,84,22509.0,58.0,0.0,7.0
Mahasamund,21.109133,82.0979,2025-10-25 11:50:05+00:00,10.2,11.15,1.92,195.52,0.88,40.32,26.04,26.04,26.04,73,1009,2.62,36,55,2493.0,7.0,,1.0
Giridih,24.184713,86.302193,2025-10-25 11:50:19+00:00,185.99,200.39,7.79,562.95,18.96,108.53,27.48,27.48,27.48,50,1009,1.34,135,69,4456.0,10.0,,7.0
Purnea,25.771103,87.482185,2025-10-25 11:50:33+00:00,137.67,150.12,11.36,509.84,16.97,89.5,28.59,28.59,28.59,51,1008,0.8,329,19,,,,
Kotputli,27.703669,76.201195,2025-10-25 11:50:34+00:00,62.88,90.0,15.36,397.6,6.7,116.24,27.18,27.18,27.18,30,1010,1.62,68,0,3235.0,24.0,,6.0
Jhalawar,24.597349,76.16098,2025-10-25 11:50:48+00:00,35.04,36.09,1.26,255.56,2.03,116.21,28.32,28.32,28.32,47,1009,3.21,31,17,2739.0,5.0,,21.0
Sitarganj,28.923548,79.700722,2025-10-25 11:51:14+00:00,98.71,121.1,11.9,497.69,14.2,113.58,28.14,28.14,28.14,48,1010,1.56,325,0,1606.0,2.0,,0.0
Barauda,21.191774,81.718285,2025-10-25 11:51:19+00:00,10.13,11.25,3.3,202.19,1.31,26.66,28.01,28.01,28.01,65,1009,2.06,50,75,4.0,,,
Sangareddy,17.611629,78.08181,2025-10-25 11:51:22+00:00,14.43,15.69,7.79,252.91,7.71,69.33,25.18,25.18,25.18,79,1008,2.47,143,72,23694.0,47.0,,59.0
Azamgarh,26.072067,83.185654,2025-10-25 11:52:47+00:00,94.42,106.75,11.02,578.14,12.35,104.12,28.76,28.76,28.76,44,1009,1.16,15,31,22795.0,0.0,,3.0
Suratgarh,29.320511,73.899399,2025-10-25 11:53:02+00:00,48.58,101.59,5.2,248.02,4.85,125.54,31.82,31.82,31.82,17,1010,1.78,59,0,3336.0,5.0,,0.0
Gingee,12.252576,79.416924,2025-10-25 11:53:12+00:00,45.66,54.18,38.83,579.78,9.07,23.99,29.63,29.63,29.63,62,1007,0.94,86,63,1976.0,,,
Samastipur,25.862968,85.781029,2025-10-25 11:53:17+00:00,119.23,133.33,9.39,537.39,8.37,85.09,29.87,29.87,29.87,43,1008,0.76,305,49,5777.0,13.0,,43.0
Ballia,25.758503,84.148911,2025-10-25 11:53:30+00:00,92.27,101.03,3.56,366.34,2.42,77.64,28.7,28.7,28.7,49,1009,2.49,198,63,3309.0,8.0,,144.0
Jahanabad,25.213928,84.989555,2025-10-25 11:53:52+00:00,108.75,117.87,4.42,365.01,5.78,94.2,27.96,27.96,27.96,53,1009,1.01,202,67,,,,
Kekri,25.973787,75.151535,2025-10-25 11:53:55+00:00,77.61,86.8,3.18,326.7,9.61,154.64,28.93,28.93,28.93,23,1009,3.16,46,0,976.0,,,
Dholpur,26.702518,77.893394,2025-10-25 11:54:09+00:00,71.43,78.19,3.0,335.39,6.05,135.57,28.84,28.84,28.84,27,1009,1.02,64,0,,,,
Hosur,12.735126,77.829338,2025-10-25 11:54:12+00:00,14.47,17.78,6.6,220.34,1.81,70.43,26.86,26.86,27.06,77,1009,1.45,229,38,12381.0,50.0,,5.0
Bisalpur,28.293783,79.804459,2025-10-25 11:54:23+00:00,91.86,112.79,9.85,452.39,11.34,102.18,24.67,24.67,24.67,38,1010,1.68,342,0,561.0,14.0,,0.0
Jhansi,25.436298,78.567352,2025-10-25 11:54:28+00:00,78.92,81.29,4.16,340.31,5.88,105.15,29.53,29.53,29.53,46,1009,3.42,96,13,17645.0,8.0,,1.0
Korba,22.363848,82.73484,2025-10-25 11:54:50+00:00,76.17,81.49,3.74,285.84,7.76,73.01,25.99,25.99,25.99,64,1009,1.12,331,85,11082.0,30.0,,16.0
Tadepalligudem,16.814524,81.526558,2025-10-25 11:55:12+00:00,11.19,13.41,2.82,228.94,3.24,66.99,26.78,26.78,26.78,80,1008,3.84,83,67,2761.0,1.0,,1.0
Rajnandgaon,21.097855,81.033707,2025-10-25 11:55:18+00:00,8.46,9.04,1.79,217.65,1.48,31.77,24.85,24.85,24.85,78,1009,2.8,352,96,4032.0,9.0,,7.0
Gumla,23.041924,84.540833,2025-10-25 11:55:28+00:00,149.92,159.27,4.87,399.59,10.04,94.6,23.28,23.28,23.28,65,1011,2.24,132,37,1419.0,3.0,,2.0
Kuchaman City,27.147869,74.859489,2025-10-25 11:55:49+00:00,51.98,72.63,3.76,258.22,5.78,144.71,28.59,28.59,28.59,24,1010,3.74,18,0,,,,
Sankari,11.477696,77.873886,2025-10-25 11:55:51+00:00,7.4,10.43,13.56,256.14,2.13,33.86,28.7,28.29,28.7,72,1007,2.0,7,86,5458.0,12.0,,2.0
Forbesganj,26.298552,87.265388,2025-10-25 11:55:58+00:00,112.0,128.99,16.15,593.02,15.63,90.26,27.58,27.58,27.58,55,1008,2.11,311,28,1279.0,18.0,,156.0
Thandalam,12.999464,80.117729,2025-10-25 11:56:03+00:00,34.17,38.13,20.0,443.61,6.36,21.97,26.41,26.08,28.28,92,1007,5.5,39,66,,,,
Sahibzada Ajit Singh Nagar,30.704649,76.717873,2025-10-25 11:56:05+00:00,51.29,66.87,11.22,387.87,4.94,103.14,24.91,24.91,24.91,50,1010,2.23,336,0,30595.0,74.0,1.0,3.0
Etah,27.55875,78.662567,2025-10-25 11:56:20+00:00,92.76,110.02,7.58,416.21,10.25,125.22,27.99,27.99,27.99,28,1010,1.35,3,0,13928.0,16.0,0.0,4.0
Nabadwip,23.406979,88.365593,2025-10-25 11:56:33+00:00,156.82,176.24,12.36,598.08,11.35,87.08,28.42,28.42,28.42,51,1008,1.46,299,2,1385.0,7.0,3.0,17.0
Sri Ganganagar,29.903839,73.87719,2025-10-25 11:56:38+00:00,51.87,115.01,3.02,225.7,5.09,128.68,30.42,30.42,30.42,18,1010,1.78,36,0,16807.0,15.0,,4.0
Hanamkonda,18.007202,79.558296,2025-10-25 11:56:58+00:00,8.73,9.76,3.66,242.28,1.72,53.3,25.46,25.46,25.46,83,1008,2.02,104,77,,,,
Ramagundam,18.76182,79.480904,2025-10-25 11:56:59+00:00,9.63,10.78,4.77,266.84,2.58,56.68,27.25,27.25,27.25,76,1008,1.17,53,85,,,,
Mau,25.949638,83.558647,2025-10-25 11:57:01+00:00,94.46,105.72,10.58,549.29,10.79,104.17,29.32,29.32,29.32,44,1009,0.41,149,52,4313.0,60.0,0.0,61.0
Gangakhed,18.966354,76.748077,2025-10-25 11:57:10+00:00,6.58,7.32,5.59,241.07,1.05,42.14,25.54,25.54,25.54,80,1008,2.31,115,92,609.0,13.0,0.0,2.0
Rahon,31.052128,76.1175,2025-10-25 11:57:14+00:00,53.04,72.41,10.82,391.83,6.26,94.69,26.22,26.22,26.22,41,1010,2.24,354,0,,,,
Mansa,23.426788,72.657074,2025-10-25 11:57:16+00:00,41.49,44.46,3.45,254.69,6.5,120.51,31.27,31.27,31.27,38,1006,3.76,11,0,4946.0,27.0,,4.0
Narwana,29.592957,76.119247,2025-10-25 11:57:23+00:00,52.86,73.04,8.18,312.05,6.79,135.91,27.68,27.68,27.68,36,1010,1.58,92,0,1858.0,4.0,0.0,0.0
Pulivendula,14.422232,78.226341,2025-10-25 11:57:28+00:00,8.17,10.61,13.13,283.48,2.05,45.01,29.37,29.37,29.37,59,1007,1.88,341,63,,1.0,,0.0
Brahmapur,19.314962,84.79409,2025-10-25 11:57:31+00:00,4.87,6.31,0.5,212.52,0.23,58.67,25.45,25.45,25.45,83,1009,1.66,88,31,,,,
Kadayanallur,9.077854,77.345184,2025-10-25 11:57:33+00:00,1.95,5.06,1.18,88.69,0.72,36.79,25.54,25.54,25.54,86,1009,4.72,271,96,,,,
Bathinda,30.210995,74.945473,2025-10-25 11:57:35+00:00,52.24,81.35,8.63,347.46,7.25,118.91,28.22,28.22,28.22,27,1010,0.8,30,0,12380.0,52.0,17.0,4.0
Botad,22.170424,71.668427,2025-10-25 11:57:51+00:00,12.61,13.08,5.8,234.69,6.4,67.0,31.58,31.58,31.58,49,1006,6.56,129,68,12585.0,18.0,,0.0
Darjeeling,27.036007,88.262672,2025-10-25 11:58:01+00:00,69.55,83.83,8.95,491.89,4.84,65.93,14.25,14.25,14.25,96,1013,1.16,258,39,16600.0,24.0,1.0,8466.0
Chiplun,17.53231,73.517792,2025-10-25 11:58:39+00:00,2.1,4.55,0.42,148.32,0.23,59.64,26.24,26.24,26.24,90,1007,1.27,182,100,,,,
Haldwani,29.219677,79.512459,2025-10-25 11:58:40+00:00,110.05,133.59,12.78,535.14,18.25,120.72,26.7,26.7,26.7,62,1012,1.53,2,0,12742.0,12.0,,273.0
Cuddalore,11.744699,79.768021,2025-10-25 11:58:46+00:00,21.06,26.98,17.29,367.66,3.66,27.61,29.22,29.22,29.22,77,1007,4.14,107,93,45183.0,48.0,,66.0
Bharuch,21.705723,72.998199,2025-10-25 11:59:21+00:00,18.84,20.34,14.66,323.84,17.34,56.56,28.19,28.19,28.19,65,1006,3.43,91,91,3649.0,3.0,,0.0
Bhadohi,25.38727,82.568031,2025-10-25 11:59:25+00:00,84.42,90.64,13.41,322.97,18.51,77.93,28.98,28.98,28.98,50,1009,2.94,121,77,601.0,,,
Vaijapur,19.925682,74.728477,2025-10-25 11:59:33+00:00,7.07,9.34,10.02,323.9,2.61,30.1,26.74,26.74,26.74,68,1007,3.25,117,92,1003.0,4.0,,0.0
Vadakara,11.608495,75.591705,2025-10-25 11:59:37+00:00,1.73,3.4,0.38,84.16,0.24,39.99,26.62,26.62,26.62,79,1009,2.59,185,30,7805.0,2.0,,120.0
Sitamarhi,26.587299,85.501183,2025-10-25 11:59:44+00:00,108.44,124.27,16.29,626.35,8.88,68.45,27.26,27.26,27.26,55,1009,2.04,351,22,18631.0,29.0,0.0,120.0
Rajgir,25.017258,85.416161,2025-10-25 12:00:06+00:00,114.13,123.83,5.73,369.1,8.31,95.3,27.95,27.95,27.95,52,1009,0.72,333,56,429.0,0.0,,1.0
Shimoga,13.92993,75.5681,2025-10-25 12:00:11+00:00,4.26,5.7,2.45,137.76,0.56,56.77,22.84,22.84,22.84,87,1009,3.64,246,93,15669.0,12.0,0.0,84.0
Unnao,26.536938,80.48996,2025-10-25 12:00:39+00:00,73.92,78.7,3.53,347.21,4.21,134.59,27.9,27.9,27.9,51,1009,1.24,98,31,9052.0,13.0,,8.0
Rangia,26.437252,91.62011,2025-10-25 12:00:58+00:00,38.51,42.77,4.2,253.41,0.75,42.77,26.09,26.09,26.09,62,1008,0.74,68,1,11.0,,,
Chandrapur,19.970324,79.30336,2025-10-25 12:01:02+00:00,11.94,13.03,5.13,256.5,4.05,50.61,25.58,25.58,25.58,86,1008,1.58,80,34,16360.0,50.0,,51.0
Silchar,24.833271,92.778908,2025-10-25 12:01:26+00:00,50.95,55.13,4.33,269.69,2.05,75.78,24.74,24.74,24.74,85,1008,2.17,312,0,7283.0,65.0,,0.0
Hailakandi,24.68469,92.564339,2025-10-25 12:01:33+00:00,53.65,58.03,3.31,271.34,2.44,90.22,25.32,25.32,25.32,81,1008,2.01,314,1,1281.0,,,
Aizawl,23.727106,92.717636,2025-10-25 12:01:38+00:00,33.09,37.54,7.99,299.73,1.23,47.83,19.78,19.78,19.78,78,1009,0.62,351,0,3747.0,2.0,,1.0
South Dum Dum,22.607672,88.394493,2025-10-25 12:01:48+00:00,29.37,35.26,4.04,291.89,3.67,87.88,31.0,31.0,31.0,62,1008,2.06,60,40,,,,
Kavathe Mahankal,17.006298,74.865372,2025-10-25 12:01:56+00:00,1.16,1.6,3.28,165.51,0.51,41.3,25.03,25.03,25.03,72,1008,3.8,225,94,,,,
Davanagere,14.464103,75.921661,2025-10-25 12:01:58+00:00,2.98,3.63,3.56,146.4,0.64,49.83,24.43,24.43,24.43,75,1009,3.27,236,66,11484.0,32.0,,6.0
Mhow,22.552437,75.756531,2025-10-25 12:02:15+00:00,6.42,6.97,6.6,263.38,4.18,40.9,25.86,25.86,25.86,73,1010,3.09,80,40,,,,
Moga,30.81646,75.171707,2025-10-25 11:56:42+00:00,51.84,71.15,10.14,387.62,5.52,104.86,28.87,28.87,28.87,25,1010,1.56,343,0,27491.0,20.0,,39.0
Bhatpara,22.859726,88.404839,2025-10-25 12:02:31+00:00,59.09,68.46,5.95,364.86,6.02,83.24,30.95,30.95,30.95,53,1008,0.8,41,10,,,,
Batala,31.823462,75.205063,2025-10-25 12:02:32+00:00,79.07,109.54,15.0,627.52,10.07,123.22,26.6,26.6,26.6,38,1010,2.2,351,0,,,,
Farrukhabad,27.387049,79.588127,2025-10-25 12:02:34+00:00,90.98,103.51,6.43,390.27,8.89,120.19,28.28,28.28,28.28,29,1010,2.42,343,1,15607.0,20.0,,34.0
Nohar,29.185776,74.771782,2025-10-25 12:02:44+00:00,47.95,80.72,3.38,239.57,6.14,137.55,30.99,30.99,30.99,25,1010,2.28,20,0,30.0,,,
Jharia,23.742628,86.41114,2025-10-25 12:02:47+00:00,191.85,205.02,7.78,527.35,16.76,112.64,28.42,28.42,28.42,50,1009,2.45,80,16,1823.0,6.0,,0.0
Hoshiarpur,31.527355,75.913673,2025-10-25 12:02:49+00:00,53.45,74.04,10.08,404.48,6.79,108.17,25.16,25.16,25.16,43,1011,1.6,2,0,23304.0,17.0,,12.0
Balurghat,25.237284,88.783058,2025-10-25 12:04:27+00:00,166.49,185.71,13.65,561.84,26.43,114.94,26.53,26.53,26.53,66,1009,0.7,358,30,7.0,,,
Madhubani,26.347883,86.071861,2025-10-25 12:04:30+00:00,132.23,151.05,14.63,676.81,16.11,101.52,27.32,27.32,27.32,57,1009,3.05,11,27,24823.0,33.0,,227.0
Khurai,24.043468,78.330353,2025-10-25 12:04:53+00:00,54.62,55.67,1.98,274.39,2.14,103.52,27.67,27.67,27.67,54,1009,4.03,157,97,147.0,,,
Upleta,21.741323,70.28112,2025-10-25 12:04:57+00:00,12.81,14.58,3.27,264.96,1.65,68.36,31.75,31.75,31.75,48,1006,5.12,51,100,,,,
Saharanpur,29.959694,77.549057,2025-10-25 12:04:58+00:00,77.71,103.44,36.71,756.06,18.66,94.84,25.34,25.34,25.34,43,1010,0.64,261,0,21345.0,36.0,,0.0
Ghaziabad,28.667856,77.449791,2025-10-25 12:05:16+00:00,66.61,90.77,21.51,460.85,5.85,105.75,29.26,29.26,29.26,24,1010,2.17,53,0,41695.0,184.0,0.0,45.0
Sambalpur,21.468185,83.975403,2025-10-25 12:05:39+00:00,26.88,28.49,1.32,205.22,1.46,60.78,27.15,27.15,27.15,67,1008,0.65,289,24,15141.0,26.0,,0.0
Saharsa,25.883495,86.600624,2025-10-25 12:06:02+00:00,122.79,136.35,10.72,523.37,11.48,95.76,29.22,29.22,29.22,47,1008,1.31,39,40,13920.0,11.0,,0.0
Gohpur,26.880077,93.60833,2025-10-25 12:06:17+00:00,22.19,25.54,5.32,265.29,0.83,24.36,23.98,23.98,23.98,73,1009,1.99,50,0,113.0,,,
Narsapur,16.432983,81.696617,2025-10-25 12:06:20+00:00,3.09,4.06,0.23,191.34,0.47,65.06,27.04,27.04,27.04,82,1008,4.0,80,65,414.0,1.0,1.0,0.0
Malappuram,11.072035,76.074005,2025-10-25 12:05:19+00:00,1.81,2.98,0.53,81.77,0.25,36.29,28.48,28.48,28.48,78,1009,3.09,190,40,43110.0,105.0,1.0,2790.0
Gauribidanur,13.611159,77.51696,2025-10-25 12:06:58+00:00,4.52,6.33,5.44,158.13,1.07,59.27,24.58,24.58,24.58,72,1009,1.64,198,54,15.0,,,
Dibrugarh,27.472834,94.911964,2025-10-25 12:07:01+00:00,11.92,14.13,4.64,208.39,0.65,29.99,27.02,27.02,27.02,78,1010,1.03,0,40,28078.0,93.0,,221.0
Gangtok,27.338936,88.606506,2025-10-25 12:07:22+00:00,60.63,72.86,8.15,455.41,3.99,71.01,15.7,15.7,15.7,92,1015,0.54,46,25,1306.0,0.0,,99.0
Balotra,25.83087,72.24012,2025-10-25 12:07:30+00:00,37.01,61.72,2.0,185.51,3.04,136.05,33.4,33.4,33.4,16,1008,5.28,69,0,4315.0,9.0,,1.0
Narsampet,17.928122,79.894531,2025-10-25 12:07:53+00:00,11.17,12.14,3.76,266.44,2.27,57.54,25.07,25.07,25.07,87,1008,1.59,123,41,538.0,1.0,,1.0
Kozhikode,11.258753,75.780411,2025-10-25 12:07:58+00:00,1.64,2.83,0.38,81.43,0.23,40.32,29.53,29.53,29.53,82,1009,1.92,207,12,36149.0,60.0,0.0,1274.0
Hindaun City,26.731142,77.033752,2025-10-25 12:08:26+00:00,83.8,94.84,6.4,370.14,8.75,139.38,28.57,28.57,28.57,26,1009,1.84,31,0,,,,
Kumbakonam,10.959815,79.380898,2025-10-25 12:08:27+00:00,11.75,14.9,16.68,305.04,2.18,18.75,30.02,30.02,30.02,67,1007,2.19,28,87,6960.0,2.0,,20.0
Satna,24.579716,80.832176,2025-10-25 12:08:35+00:00,105.47,109.43,5.15,308.87,4.22,89.95,28.77,28.77,28.77,50,1009,1.47,96,100,21971.0,14.0,0.0,6.0
Chhindwara,22.057163,78.938202,2025-10-25 12:09:04+00:00,32.16,34.0,10.12,319.61,7.76,52.64,22.13,22.13,22.13,79,1011,2.49,81,96,4786.0,12.0,,16.0
Ongole,15.505723,80.049919,2025-10-25 12:09:28+00:00,7.44,9.18,5.19,238.73,1.1,33.27,27.59,27.59,27.59,76,1008,2.75,105,100,3854.0,1.0,,0.0
Padrauna,26.898392,83.979713,2025-10-25 12:09:33+00:00,89.07,104.17,15.39,572.02,6.4,61.96,26.79,26.79,26.79,50,1009,2.65,291,0,202.0,1.0,,0.0
Akola,20.707228,77.00296,2025-10-25 12:09:38+00:00,5.1,5.58,4.7,252.45,1.14,35.05,26.87,26.87,26.87,71,1008,2.65,66,95,16371.0,12.0,0.0,0.0
Kalwan,20.492281,74.026009,2025-10-25 12:10:05+00:00,10.11,12.08,12.32,328.68,8.34,34.21,24.92,24.92,24.92,78,1008,3.08,75,92,278.0,0.0,,6.0
Sircilla,18.38662,78.802246,2025-10-25 12:10:11+00:00,4.96,6.36,3.89,223.53,1.34,45.94,25.87,25.87,25.87,79,1009,3.01,116,85,5342.0,9.0,,453.0
Rohtak,28.895515,76.606613,2025-10-25 12:10:22+00:00,57.06,76.22,8.47,313.06,6.5,133.64,27.89,27.89,27.89,27,1010,1.91,34,0,21468.0,17.0,0.0,5.0
Anandapur,21.2155,86.1222,2025-10-25 12:10:35+00:00,22.29,25.99,6.05,302.26,3.01,55.87,26.76,26.76,26.76,72,1009,2.58,116,0,403.0,,,
DCKAP Technologies,13.090994,80.224998,2025-10-25 12:10:39+00:00,35.07,37.85,14.61,491.51,3.37,34.97,27.63,26.68,28.31,86,1007,0.89,51,54,,,,
Garhshankar,31.213682,76.144012,2025-10-25 12:10:41+00:00,51.78,71.33,10.92,397.64,6.09,98.29,25.54,25.54,25.54,44,1011,2.2,341,0,1007.0,8.0,,2.0
Jagtial,18.794905,78.912872,2025-10-25 12:10:46+00:00,4.94,6.38,4.86,239.83,1.73,44.52,26.22,26.22,26.22,77,1008,2.39,97,73,4120.0,3.0,,0.0
Dausa,26.894478,76.334824,2025-10-25 12:11:07+00:00,78.83,96.64,4.56,329.88,7.01,143.54,27.63,27.63,27.63,32,1010,1.4,81,0,3352.0,8.0,0.0,39.0
Muradnagar,28.771646,77.507561,2025-10-25 12:11:20+00:00,66.61,90.77,21.51,460.85,5.85,105.75,27.77,27.77,27.77,27,1010,2.45,38,0,,,,
Srivilliputhur,9.512137,77.634087,2025-10-25 12:11:21+00:00,3.83,5.42,5.52,141.04,1.94,22.05,29.83,29.83,29.83,64,1007,0.81,162,72,1527.0,9.0,,11.0
Paramakudi,9.548395,78.591637,2025-10-25 12:11:26+00:00,3.23,4.41,5.19,140.39,1.23,19.86,30.28,30.28,30.28,63,1007,1.67,106,94,1969.0,8.0,,7.0
Barabanki,26.937834,81.188324,2025-10-25 12:11:32+00:00,91.85,101.47,5.57,432.6,3.66,106.48,27.87,27.87,27.87,41,1010,1.28,47,1,5952.0,6.0,,0.0
Secunderabad,17.440325,78.498894,2025-10-25 12:11:45+00:00,11.39,12.48,3.87,229.43,2.64,57.17,22.93,22.93,24.42,94,1009,1.03,270,75,,,,
Mirzapur,25.133699,82.56443,2025-10-25 12:11:47+00:00,88.61,95.89,18.28,290.82,23.18,67.21,28.06,28.06,28.06,59,1009,2.9,87,72,32924.0,59.0,,167.0
Virudhachalam,11.519588,79.325157,2025-10-25 12:12:25+00:00,13.57,17.61,15.24,329.47,1.9,28.45,28.56,28.56,28.56,73,1007,3.52,113,70,5253.0,8.0,,1.0
Jhunjhunu,28.128876,75.399506,2025-10-25 12:12:31+00:00,54.12,77.98,5.61,271.35,7.12,146.77,28.69,28.69,28.69,27,1010,3.45,22,0,23919.0,4.0,,19.0
Karera,25.454794,78.133957,2025-10-25 12:12:57+00:00,76.55,78.71,1.98,309.12,4.57,118.51,28.82,28.82,28.82,45,1009,2.22,1,7,667.0,,,
Kottayam,9.591441,76.522171,2025-10-25 12:13:10+00:00,2.1,7.66,0.35,80.69,0.38,44.88,25.99,25.99,25.99,87,1009,1.23,226,62,26886.0,70.0,,776.0
Shivpuri,25.42412,77.65799,2025-10-25 12:13:35+00:00,77.46,80.04,2.11,315.64,5.12,123.5,25.92,25.92,25.92,54,1010,3.13,16,22,3787.0,1.0,,0.0
Amalner,21.04241,75.063873,2025-10-25 12:13:55+00:00,6.46,7.15,4.01,272.31,0.46,40.49,28.03,28.03,28.03,65,1007,5.34,97,83,712.0,0.0,,1.0
Durgapur,23.53344,87.32193,2025-10-25 12:14:00+00:00,158.43,168.64,8.51,455.84,19.76,121.27,27.88,27.88,27.88,74,1009,1.03,80,40,1.0,,,
Gola Gokrannath Kheri,28.080379,80.466644,2025-10-25 12:14:04+00:00,98.76,122.29,15.92,488.43,23.26,163.4,24.28,24.28,24.28,40,1010,2.52,326,0,,,,
Dharwad,15.460252,75.010284,2025-10-25 12:14:06+00:00,2.4,2.8,1.17,126.13,0.21,65.91,27.46,27.46,27.46,69,1009,4.63,210,20,21829.0,46.0,,20.0
Vapi,20.385181,72.911453,2025-10-25 12:14:23+00:00,3.61,6.29,3.71,215.37,3.15,56.53,25.82,25.82,25.82,86,1006,1.59,254,89,,,,
Firozabad,27.159101,78.39576,2025-10-25 12:14:25+00:00,83.22,94.6,4.67,367.32,6.35,122.37,27.96,27.96,27.96,28,1010,1.42,43,0,16864.0,24.0,1.0,19.0
Vasco da Gama,15.386033,73.84404,2025-10-25 12:14:37+00:00,2.27,5.11,0.24,107.17,0.18,61.44,25.12,25.12,25.12,89,1007,7.65,148,98,,,,
Asansol,23.673944,86.952393,2025-10-25 12:14:39+00:00,183.87,195.86,8.9,509.99,20.14,119.89,27.4,27.4,27.4,57,1009,2.52,72,8,3725.0,1.0,,1.0
Tenkasi,8.959021,77.312935,2025-10-25 12:14:43+00:00,1.67,5.35,0.48,82.08,0.42,39.75,25.83,25.83,25.83,85,1009,4.01,270,97,9312.0,16.0,,52.0
Srikakulam,18.296974,83.896782,2025-10-25 12:14:55+00:00,4.92,7.02,1.55,212.66,1.96,67.57,26.48,26.48,26.48,83,1009,3.6,72,45,3388.0,8.0,,34.0
Hassan,13.009711,76.102898,2025-10-25 12:15:07+00:00,8.21,10.27,2.88,167.48,1.42,58.12,21.38,21.38,21.38,85,1010,4.22,260,99,21286.0,54.0,0.0,225.0
Churu,28.29229,74.966583,2025-10-25 12:15:36+00:00,49.75,74.18,4.02,247.72,6.48,143.68,29.6,29.6,29.6,26,1010,3.41,37,0,7385.0,8.0,0.0,483.0
Bulandshahr,28.406963,77.849831,2025-10-25 12:16:31+00:00,72.11,96.2,17.46,456.58,6.3,108.33,27.36,27.36,27.36,30,1010,0.36,224,0,33322.0,30.0,,7.0
Hinganghat,20.550573,78.841141,2025-10-25 12:17:55+00:00,9.03,9.87,6.64,264.38,4.18,40.53,25.9,25.9,25.9,80,1009,2.69,79,64,1714.0,4.0,,0.0
Lakhisarai,25.168901,86.092987,2025-10-25 12:18:00+00:00,139.85,153.71,8.73,480.53,13.19,102.97,28.73,28.73,28.73,49,1009,0.82,183,39,653.0,1.0,,0.0
Mahoba,25.292509,79.872665,2025-10-25 12:18:05+00:00,80.73,84.23,3.57,358.67,12.58,75.4,29.38,29.38,29.38,50,1009,2.78,75,40,2727.0,1.0,0.0,15.0
Sirsa,29.536535,75.025505,2025-10-25 12:18:18+00:00,54.05,88.46,4.42,276.67,8.12,145.53,28.96,28.96,28.96,29,1010,2.44,46,0,28937.0,14.0,,5.0
Ranaghat,23.174049,88.563934,2025-10-25 12:18:34+00:00,94.4,108.15,8.81,462.27,9.13,87.09,28.45,28.45,28.45,53,1009,1.0,105,6,1089.0,1.0,,1.0
Udgir,18.3934,77.113144,2025-10-25 12:18:39+00:00,8.73,9.21,6.22,234.15,1.98,56.3,24.97,24.97,24.97,73,1008,1.41,187,88,5250.0,4.0,,0.0
Ratlam,23.334169,75.037636,2025-10-25 12:18:46+00:00,7.55,7.97,2.15,238.98,0.47,59.87,25.37,25.37,25.37,65,1009,1.68,152,75,12019.0,17.0,0.0,4.0
Nimbahera,24.620001,74.68,2025-10-25 12:19:04+00:00,62.18,64.91,1.87,274.54,3.49,125.82,27.64,27.64,27.64,49,1009,3.37,56,2,145.0,,,
Robertsganj,24.685001,83.068352,2025-10-25 12:19:07+00:00,99.03,106.81,14.44,305.29,15.42,61.22,25.43,25.43,25.43,63,1010,1.86,54,91,1524.0,8.0,,3.0
Khandwa,21.825733,76.35257,2025-10-25 12:19:24+00:00,9.78,10.6,7.93,311.61,3.73,32.55,25.11,25.11,25.11,75,1009,3.56,51,92,21531.0,6.0,,8.0
Rajendra Nagar,20.450474,85.905533,2025-10-25 12:19:46+00:00,9.81,11.66,1.07,228.51,0.41,53.53,27.11,27.11,27.11,77,1009,3.12,108,89,274.0,,,
Mehsana,23.586761,72.369949,2025-10-25 12:19:50+00:00,46.29,49.88,2.73,257.74,5.47,122.23,31.75,31.75,31.75,33,1007,3.14,85,3,3.0,,,
Fatehabad,29.511778,75.455215,2025-10-25 12:19:53+00:00,55.61,83.9,5.4,297.83,7.94,147.56,28.06,28.06,28.06,33,1010,2.52,36,0,34545.0,62.0,,906.0
Raiganj,25.61853,88.125587,2025-10-25 12:20:15+00:00,142.82,158.28,12.09,487.89,17.5,92.17,27.12,27.12,27.12,61,1009,1.79,109,5,4814.0,1.0,,0.0
Junnar,19.206861,73.875801,2025-10-25 12:20:29+00:00,1.85,2.31,3.82,202.29,1.95,40.2,24.53,24.53,24.53,80,1008,1.96,185,91,4260.0,11.0,,161.0
Unchahar,25.9,81.300003,2025-10-25 12:20:38+00:00,79.28,84.33,4.29,355.83,7.12,108.84,28.34,28.34,28.34,51,1009,2.2,50,16,696.0,2.0,,0.0
Banka,24.885483,86.920731,2025-10-25 12:20:42+00:00,215.3,233.32,18.27,815.99,38.13,117.15,27.92,27.92,27.92,52,1009,0.73,41,62,2376.0,2.0,,8.0
Jamner,20.809378,75.778923,2025-10-25 12:20:53+00:00,8.21,8.78,2.96,253.9,0.56,48.2,26.77,26.77,26.77,73,1008,3.48,83,95,1148.0,2.0,,0.0
Khamgaon,20.711622,76.566132,2025-10-25 12:20:59+00:00,7.58,8.22,4.88,269.89,0.99,34.1,26.06,26.06,26.06,76,1008,2.23,76,97,1196.0,2.0,,0.0
Mehkar,20.149822,76.574036,2025-10-25 12:21:04+00:00,5.7,6.44,3.75,240.52,0.96,35.78,24.98,24.98,24.98,80,1009,2.88,103,81,895.0,0.0,,1.0
Rewa,24.530727,81.29911,2025-10-25 12:21:09+00:00,104.78,108.6,4.48,281.37,6.81,91.01,28.57,28.57,28.57,52,1009,2.63,120,97,16835.0,12.0,,1.0
Karnal,29.685629,76.990547,2025-10-25 12:12:26+00:00,53.03,66.37,14.44,379.44,5.71,110.65,26.4,26.4,26.4,31,1010,0.68,156,0,28451.0,42.0,0.0,25.0
Ichalkaranji,16.709002,74.456078,2025-10-25 12:21:52+00:00,1.22,1.64,1.27,137.35,0.46,62.47,25.09,25.09,25.09,72,1008,3.86,211,99,,,,
Bihar Sharif,25.19935,85.517609,2025-10-25 12:21:54+00:00,114.13,123.83,5.73,369.1,8.31,95.3,28.27,28.27,28.27,52,1009,1.85,238,59,,,,
Cooch Behar,26.323921,89.451088,2025-10-25 12:21:55+00:00,64.49,75.73,13.75,451.71,2.12,49.51,25.8,25.8,25.8,68,1009,2.23,348,1,7950.0,75.0,,78.0
Imphal,24.813967,93.950279,2025-10-25 12:22:19+00:00,19.93,21.41,4.25,178.59,0.34,30.34,24.96,24.96,24.96,83,1011,2.06,300,20,,,,
Viramgam,23.125837,72.057442,2025-10-25 12:22:21+00:00,30.33,32.48,3.38,254.87,3.64,96.84,33.68,33.68,33.68,32,1006,5.38,49,0,,,,
Anantnag,33.729729,75.14978,2025-10-25 12:22:22+00:00,82.68,131.29,10.24,609.37,8.39,131.89,16.8,16.8,16.8,33,1013,0.69,82,0,739.0,0.0,,21.0
Panaji,15.496777,73.827827,2025-10-25 12:22:27+00:00,2.27,5.1,0.24,109.57,0.17,62.84,26.82,26.82,26.82,89,1007,4.12,150,75,,,,
Anand,22.554029,72.948936,2025-10-25 12:22:29+00:00,12.53,13.77,13.12,270.82,13.86,43.4,30.46,30.46,30.46,54,1006,4.56,121,56,26931.0,31.0,,11.0
Manmad,20.251549,74.438354,2025-10-25 12:22:48+00:00,11.49,14.36,6.17,316.13,2.18,31.79,25.84,25.84,25.84,72,1008,3.36,69,96,,,,
Daryapur,20.92207,77.326698,2025-10-25 12:22:50+00:00,4.76,5.14,3.3,254.15,0.43,40.02,26.15,26.15,26.15,72,1008,3.37,88,90,853.0,1.0,,3.0
Arvi,20.634085,79.140388,2025-10-25 12:22:55+00:00,12.11,13.07,9.58,263.98,8.13,43.1,25.71,25.71,25.71,80,1009,2.95,92,46,719.0,1.0,,0.0
Paratwada,21.27306,77.523422,2025-10-25 12:23:00+00:00,6.87,7.31,3.04,265.17,0.3,45.1,24.16,24.16,24.16,85,1009,3.35,72,87,,,,
Bardoli,21.124857,73.11261,2025-10-25 12:23:02+00:00,8.97,10.36,7.59,281.85,6.8,59.8,27.93,27.93,27.93,68,1006,5.28,57,95,,,,
Bodhgaya,24.696135,84.986954,2025-10-25 12:20:56+00:00,121.81,130.88,3.45,326.71,7.22,88.48,26.92,26.92,26.92,78,1009,0.0,0,75,534.0,1.0,,14.0
Chabua,27.48,95.18,2025-10-25 12:23:09+00:00,10.99,13.23,4.07,190.76,0.52,24.44,25.98,25.98,25.98,83,1010,1.03,0,40,3572.0,16.0,,27.0
Jamkhandi,16.504227,75.290932,2025-10-25 12:23:20+00:00,1.16,1.46,2.98,153.21,0.32,42.35,26.32,26.32,26.32,66,1008,3.57,212,81,,1.0,,0.0
Burdwan,23.232513,87.863419,2025-10-25 12:23:25+00:00,127.6,139.29,5.26,429.43,7.77,111.87,26.45,26.45,26.45,62,1009,1.9,304,6,4376.0,12.0,,0.0
Tumakuru,13.338263,77.10141,2025-10-25 12:23:32+00:00,4.95,6.28,2.68,139.65,0.75,61.39,25.03,25.03,25.03,68,1009,1.54,233,85,27394.0,89.0,,133.0
Nayagarh,20.127028,85.105057,2025-10-25 12:24:06+00:00,9.14,12.57,2.42,236.73,0.97,39.56,27.16,27.16,27.16,74,1009,1.37,118,86,1087.0,0.0,,1.0
Sivasagar,26.98,94.629997,2025-10-25 12:24:19+00:00,12.73,14.43,4.14,175.8,0.47,29.4,23.27,23.27,23.27,85,1010,2.68,56,0,1324.0,38.0,,6.0
Wani,20.067541,78.958054,2025-10-25 12:24:25+00:00,8.09,9.07,5.24,266.1,2.48,38.08,26.47,26.47,26.47,79,1009,3.06,85,39,1268.0,6.0,,0.0
Karwar,14.801439,74.124069,2025-10-25 12:24:39+00:00,1.99,4.4,0.23,100.81,0.17,61.09,25.95,25.95,25.95,87,1008,5.32,151,99,1.0,,,
Kapurthala,31.379999,75.379997,2025-10-25 12:24:43+00:00,56.48,77.59,8.86,395.06,6.75,108.82,28.19,28.19,28.19,30,1010,1.57,352,0,7822.0,26.0,,7.0
Ganderbal,34.216496,74.771942,2025-10-25 12:25:07+00:00,54.35,90.7,11.14,448.45,5.28,121.85,16.98,16.98,16.98,32,1014,0.61,76,0,3137.0,4.0,,175.0
Guna,24.65,77.32,2025-10-25 12:25:19+00:00,75.53,78.21,3.24,344.26,3.98,88.57,27.12,27.12,27.12,51,1009,2.93,29,42,13047.0,4.0,0.0,0.0
Khanna,30.702877,76.220222,2025-10-25 12:25:48+00:00,56.63,74.83,9.56,388.85,7.1,117.14,26.66,26.66,26.66,40,1011,2.24,12,0,,,,
Mahbubnagar,16.737509,78.008125,2025-10-25 12:25:50+00:00,6.29,6.97,1.85,209.67,1.04,70.72,25.88,25.88,25.88,73,1008,1.9,126,72,,,,
Nalgonda,17.05662,79.268333,2025-10-25 12:25:51+00:00,9.47,10.45,2.48,195.21,0.41,31.95,26.35,26.35,26.35,80,1008,2.91,130,68,31030.0,22.0,,65.0
Theni,10.010366,77.476814,2025-10-25 12:26:39+00:00,4.27,6.46,4.74,141.12,2.53,25.01,27.08,27.08,27.08,73,1009,2.44,239,83,10578.0,24.0,,43.0
Eluru,16.703285,81.100388,2025-10-25 12:26:53+00:00,11.32,14.15,2.47,254.62,2.36,79.87,26.6,26.6,26.6,83,1008,3.01,135,69,42670.0,17.0,0.0,111.0
Pusad,19.912676,77.56691,2025-10-25 12:27:53+00:00,3.96,4.64,6.26,228.56,2.82,36.0,25.21,25.21,25.21,81,1009,3.05,116,77,1954.0,0.0,,1.0
Shamshabad,17.25116,78.437737,2025-10-25 12:27:59+00:00,13.34,14.51,3.91,238.69,2.46,57.88,24.03,23.53,24.03,88,1009,2.06,0,75,18.0,,,
Aurangabad,19.901054,75.352478,2025-10-25 12:28:02+00:00,2.27,2.83,3.61,227.68,0.41,41.12,25.91,25.91,25.91,83,1008,0.0,0,75,26711.0,5.0,,1.0
Bankura,23.233774,87.08725,2025-10-25 12:28:26+00:00,156.97,165.55,12.43,470.11,29.6,125.49,27.16,27.16,27.16,60,1009,3.18,103,7,31758.0,11.0,,11.0
Renukoot,24.220198,83.035957,2025-10-25 12:29:04+00:00,115.94,123.18,5.81,310.9,5.89,68.22,26.24,26.24,26.24,57,1010,2.42,72,87,,,,
Anakapalle,17.686001,83.008781,2025-10-25 12:29:06+00:00,4.63,6.74,1.92,212.07,1.55,61.11,28.97,28.97,28.97,84,1009,3.22,78,77,1549.0,3.0,,42.0
Sikandrabad,28.452393,77.697205,2025-10-25 12:29:10+00:00,69.36,93.1,18.35,450.02,5.94,107.65,27.61,27.61,27.61,29,1010,0.4,140,0,988.0,,,
Saidabad,28.526592,77.290169,2025-10-25 12:29:17+00:00,64.7,87.7,15.75,405.33,5.67,114.94,28.12,28.12,28.12,42,1010,0.0,0,0,1065.0,0.0,,1.0
Yelahanka,13.094454,77.586014,2025-10-25 12:29:28+00:00,5.34,6.82,2.73,143.01,1.0,69.6,26.61,25.75,26.92,64,1009,3.09,210,40,134.0,0.0,,3.0
Pithoragarh,29.582861,80.218185,2025-10-25 12:29:33+00:00,94.91,113.26,11.53,480.34,13.48,103.77,13.11,13.11,13.11,67,1013,2.07,171,0,1415.0,2.0,,123.0
Vidisha,23.530001,77.82,2025-10-25 12:31:12+00:00,31.0,31.65,3.62,255.69,3.79,75.18,26.08,26.08,26.08,63,1010,2.82,161,100,13293.0,3.0,,2.0
Warora,20.23,79.0,2025-10-25 12:31:39+00:00,10.93,12.33,7.64,273.16,3.59,36.18,24.91,24.91,24.91,84,1009,3.18,75,28,,1.0,,0.0
Jhagadia,21.719477,73.151009,2025-10-25 12:31:48+00:00,14.46,15.68,14.02,326.07,16.53,44.47,27.46,27.46,27.46,68,1007,2.68,84,100,,,,
Morbi,22.811989,70.823616,2025-10-25 12:31:50+00:00,21.59,23.78,6.28,285.65,3.39,78.46,32.62,32.62,32.62,35,1006,6.7,37,94,8116.0,147.0,0.0,1.0
Bhopal,23.259933,77.412613,2025-10-25 12:32:08+00:00,26.68,27.22,3.42,275.29,2.42,61.85,25.18,25.18,25.18,73,1010,1.54,120,75,48608.0,69.0,2.0,7.0
Agartala,23.829321,91.277847,2025-10-25 12:32:32+00:00,48.42,55.39,2.59,290.63,2.11,77.9,30.02,30.02,30.02,74,1009,1.54,10,20,,,,
Bhandara,21.17,79.650002,2025-10-25 12:32:34+00:00,12.65,13.98,9.98,275.18,10.8,40.95,23.38,23.38,23.38,85,1010,2.19,33,100,8318.0,12.0,,36.0
Baramati,18.150663,74.576782,2025-10-25 12:32:51+00:00,1.22,1.74,1.83,171.84,0.21,39.12,24.62,24.62,24.62,77,1008,2.45,177,100,4601.0,17.0,,50.0
Makrana,27.029617,74.716324,2025-10-25 12:33:00+00:00,51.25,72.56,4.84,265.18,5.85,137.95,26.54,26.54,26.54,27,1011,3.36,25,0,463.0,3.0,,0.0
Panipat,29.398928,76.977081,2025-10-25 12:33:04+00:00,56.12,70.29,15.71,387.7,6.69,111.06,25.07,25.07,25.07,31,1011,1.3,106,0,21652.0,90.0,,0.0
Sehore,23.198437,77.095184,2025-10-25 12:33:13+00:00,18.46,19.2,4.92,273.62,1.61,51.33,25.15,25.15,25.15,65,1010,3.55,171,100,4046.0,9.0,,3.0
Madanapalle,13.55,78.5,2025-10-25 12:33:50+00:00,14.35,17.63,10.51,248.82,2.28,44.16,24.44,24.44,24.44,67,1010,0.84,273,100,4239.0,3.0,,0.0
Madhopur,32.365288,75.59729,2025-10-25 12:33:56+00:00,124.3,167.34,30.63,1098.57,12.27,117.77,22.7,22.7,22.7,44,1011,0.77,347,0,9729.0,2.0,,72.0
Bhuj,23.242001,69.666931,2025-10-25 12:34:10+00:00,58.34,63.7,2.94,271.7,6.05,135.48,30.91,30.91,30.91,28,1008,5.54,39,7,,,,
Shahjahanpur,27.883743,79.912247,2025-10-25 12:34:11+00:00,96.5,117.63,10.97,476.09,11.19,97.73,24.95,24.95,24.95,36,1011,2.44,348,0,17765.0,59.0,,5.0
Raebareli,26.230299,81.240891,2025-10-25 12:34:38+00:00,84.68,93.13,6.75,419.87,4.2,88.42,27.21,27.21,27.21,49,1010,2.21,60,0,17889.0,8.0,,0.0
Dhanbad,23.795399,86.42704,2025-10-25 12:35:00+00:00,190.81,204.69,9.6,546.29,15.06,100.71,27.33,27.33,27.33,51,1010,2.06,87,84,18649.0,66.0,,1.0
Hasanpur,28.719999,78.279999,2025-10-25 12:35:12+00:00,81.99,110.67,23.76,577.56,8.24,94.08,25.32,25.32,25.32,32,1011,1.75,36,0,323.0,2.0,,2.0
Jabalpur,23.185884,79.97438,2025-10-25 12:35:17+00:00,66.5,67.7,1.82,291.67,1.53,85.42,27.52,27.52,27.52,78,1010,1.54,70,75,5871.0,6.0,0.0,0.0
Shahada,21.546185,74.470009,2025-10-25 12:35:22+00:00,3.81,4.99,4.18,243.32,1.72,34.3,27.15,27.15,27.15,66,1008,3.73,79,85,1151.0,5.0,0.0,4.0
Mysuru,12.29581,76.639381,2025-10-25 12:35:27+00:00,13.44,18.8,12.69,269.31,3.68,39.97,25.0,25.0,25.0,73,1010,2.57,320,75,12460.0,12.0,0.0,2.0
Tiruvannamalai,12.228628,79.066544,2025-10-25 12:35:43+00:00,41.44,50.55,36.36,585.18,7.26,24.09,28.35,28.35,28.35,61,1008,1.23,129,100,27227.0,8.0,,89.0
Panskura,22.395582,87.741882,2025-10-25 12:36:10+00:00,14.62,16.39,0.93,211.92,0.92,57.75,26.76,26.76,26.76,59,1009,1.83,333,5,560.0,,,
Bijnor,29.372442,78.135849,2025-10-25 12:36:16+00:00,102.57,137.75,50.87,1009.47,23.99,126.26,23.72,23.72,23.72,37,1011,0.93,55,0,6946.0,10.0,0.0,22.0
Rajpura,30.483997,76.593948,2025-10-25 12:36:27+00:00,57.81,75.38,14.53,443.11,5.95,98.69,24.98,24.98,24.98,46,1011,2.07,359,0,23.0,,,
Pipariya,22.762886,78.352478,2025-10-25 12:36:31+00:00,10.71,11.45,4.08,240.0,1.64,51.85,23.95,23.95,23.95,65,1010,1.85,138,100,75.0,,,
Auraiya,26.469999,79.519997,2025-10-25 12:36:37+00:00,78.32,84.31,4.63,364.0,4.28,112.58,27.15,27.15,27.15,49,1010,2.38,39,16,1585.0,9.0,,12.0
Bahadurgarh,28.68,76.919998,2025-10-25 12:37:47+00:00,62.17,83.79,10.49,353.1,5.85,124.01,28.08,28.08,28.08,24,1010,2.08,23,0,8004.0,33.0,,40.0
Avinashi,11.191447,77.268883,2025-10-25 12:37:59+00:00,4.06,6.08,6.88,156.33,1.55,22.64,25.31,25.31,25.31,81,1009,3.28,231,64,,,,
Thanesar,29.962072,76.817825,2025-10-25 12:38:01+00:00,54.41,69.58,21.99,475.48,4.79,85.61,25.56,25.56,25.56,38,1011,0.04,214,0,9064.0,14.0,0.0,1.0
Malout,30.191515,74.497864,2025-10-25 12:38:08+00:00,52.62,97.3,5.42,291.61,6.66,110.05,25.85,25.85,25.85,27,1010,0.96,126,0,,,,
Pilkhuwa,28.711969,77.654457,2025-10-25 12:38:10+00:00,71.48,97.68,26.54,541.55,6.25,90.04,25.81,25.81,25.81,30,1011,2.27,40,0,,,,
Jind,29.316668,76.316666,2025-10-25 12:38:11+00:00,50.87,69.17,13.25,340.46,5.68,112.38,25.89,25.89,25.89,27,1011,1.69,72,0,19231.0,6.0,0.0,17.0
Santipur,23.255541,88.437363,2025-10-25 12:38:28+00:00,122.02,142.83,13.44,614.4,11.01,72.04,27.44,27.44,27.44,54,1009,0.34,280,6,1009.0,0.0,,8.0
Sathankulam,8.444186,77.912804,2025-10-25 12:38:33+00:00,1.84,6.1,0.86,86.46,0.5,38.2,27.74,27.74,27.74,72,1008,5.08,230,100,1528.0,,,
Amravati,20.937424,77.779549,2025-10-25 12:38:40+00:00,4.06,4.55,2.72,253.17,0.32,42.99,24.65,24.65,24.65,80,1010,3.58,75,26,24541.0,7.0,,31.0
Hathras,27.6,78.050003,2025-10-25 12:39:21+00:00,90.77,108.66,9.73,427.31,7.25,120.62,26.6,26.6,26.6,28,1011,0.89,42,0,20194.0,8.0,,1.0
Arcot,12.904441,79.31916,2025-10-25 12:39:36+00:00,32.87,39.47,25.2,480.74,2.93,14.39,28.55,28.55,28.55,61,1008,1.64,68,83,556.0,1.0,,0.0
Khurja,28.252222,77.851784,2025-10-25 12:39:39+00:00,75.85,101.23,22.0,515.0,6.48,93.07,26.54,26.54,26.54,29,1011,1.28,183,0,7210.0,2.0,,1.0
Bhuvanagiri,17.518345,78.885956,2025-10-25 12:39:50+00:00,9.36,10.59,2.9,215.34,0.58,42.48,23.72,23.72,23.72,85,1010,3.11,117,20,17230.0,25.0,,19.0
Kavesar,19.262466,72.974106,2025-10-25 12:40:06+00:00,2.93,5.74,0.5,176.36,0.36,67.76,29.01,26.96,29.01,75,1007,2.85,163,100,1.0,1.0,,0.0
Rajgangpur,22.205206,84.584251,2025-10-25 12:40:10+00:00,111.83,118.97,4.25,336.05,8.66,89.59,25.42,25.42,25.42,59,1010,1.86,95,71,,,,
Fazilka,30.403648,74.027962,2025-10-25 12:40:12+00:00,56.62,100.31,12.27,363.31,7.53,92.69,27.21,27.21,27.21,21,1010,1.69,155,0,19736.0,34.0,0.0,1.0
Buldana,20.536846,76.18087,2025-10-25 12:40:33+00:00,6.05,6.62,3.73,253.24,0.61,38.6,23.21,23.21,23.21,84,1009,2.97,88,86,7552.0,8.0,,10.0
Amroha,28.902397,78.465042,2025-10-25 12:41:22+00:00,94.24,124.8,28.44,682.16,14.3,105.95,24.44,24.44,24.44,33,1011,1.17,6,0,7295.0,7.0,,37.0
Nedumangad,8.603333,77.002777,2025-10-25 12:41:32+00:00,1.91,8.34,0.56,82.72,0.46,43.57,28.6,28.6,28.6,79,1010,3.09,300,40,6194.0,5.0,,95.0
Sawaimadhopur,25.983334,76.366669,2025-10-25 12:41:42+00:00,86.0,93.55,4.52,366.72,9.71,148.57,26.74,26.74,26.74,25,1010,3.05,36,0,,,,
Akot,21.1,77.059998,2025-10-25 12:41:44+00:00,5.65,6.24,4.61,269.62,0.53,35.49,25.14,25.14,25.14,81,1009,3.51,76,99,461.0,5.0,0.0,0.0
Thane West,19.226662,72.983833,2025-10-25 12:41:49+00:00,2.93,5.74,0.5,176.36,0.36,67.76,28.97,26.93,28.97,79,1007,3.6,230,75,,,,
Balasore,21.494978,86.942657,2025-10-25 12:41:53+00:00,15.09,21.87,11.37,365.02,4.22,28.24,26.14,26.14,26.14,78,1010,1.73,153,3,,,,
Doddaballapura,13.298757,77.540817,2025-10-25 12:41:54+00:00,5.88,8.15,6.51,176.47,1.29,56.81,27.07,27.07,27.07,65,1010,0.75,195,91,,,,
Mettupalayam,11.289087,76.940971,2025-10-25 12:41:56+00:00,6.56,9.19,9.52,177.57,2.7,31.82,24.93,24.93,24.93,82,1010,0.97,259,9,934.0,1.0,,0.0
Mallaguri,26.743464,88.416252,2025-10-25 12:43:01+00:00,79.74,96.33,12.16,538.25,6.43,54.3,23.78,23.78,23.78,70,1011,2.32,340,76,,,,
Sitapur,27.57509,80.663765,2025-10-25 12:43:02+00:00,110.53,132.58,14.48,563.46,11.42,97.84,25.89,25.89,25.89,42,1010,1.83,327,0,22190.0,12.0,,7.0
Jaora,23.644524,75.131035,2025-10-25 12:43:25+00:00,11.28,11.96,1.77,252.11,1.04,70.62,25.37,25.37,25.37,64,1010,3.48,81,100,31.0,,,
Dhuri,30.370001,75.870003,2025-10-25 12:43:29+00:00,60.9,82.19,12.31,405.0,9.0,120.46,26.61,26.61,26.61,34,1011,1.88,15,0,7318.0,3.0,,0.0
Sitalkuchi,26.169069,89.180122,2025-10-25 12:43:39+00:00,89.39,105.42,13.67,539.95,11.16,70.96,25.95,25.95,25.95,66,1010,1.42,5,75,150.0,0.0,,5.0
Dombivli,19.2094,73.093948,2025-10-25 12:43:45+00:00,2.59,5.3,0.84,175.33,0.53,65.19,28.97,26.93,28.97,81,1007,1.34,103,100,,,,
Pathankot,32.265942,75.646873,2025-10-25 12:43:46+00:00,133.68,172.8,24.86,1017.72,12.63,133.49,22.89,22.89,22.89,43,1011,0.59,350,0,14276.0,4.0,,1.0
Thiruvananthapuram,8.524139,76.936638,2025-10-25 12:43:57+00:00,2.06,10.26,0.48,82.85,0.44,44.25,28.85,28.85,28.85,79,1010,3.09,300,40,54459.0,77.0,1.0,1322.0
Beawar,26.100735,74.319077,2025-10-25 12:44:33+00:00,60.85,72.61,3.26,270.33,6.55,140.06,25.84,25.84,25.84,28,1011,3.03,43,0,,,,
Ajmer,26.449896,74.639915,2025-10-25 12:44:34+00:00,61.2,76.47,3.67,275.78,6.31,142.28,25.61,25.61,25.61,28,1011,2.08,38,0,8019.0,1.0,,0.0
Jagraon,30.780001,75.480003,2025-10-25 12:44:43+00:00,56.53,76.63,13.39,419.56,8.05,103.12,26.66,26.66,26.66,31,1011,1.99,36,0,2768.0,3.0,,10.0
Budaun,28.033709,79.120544,2025-10-25 12:44:52+00:00,93.82,120.25,18.35,572.21,12.75,101.88,25.64,25.64,25.64,34,1011,2.16,28,0,12592.0,1.0,,0.0
Pandharpur,17.674553,75.323723,2025-10-25 12:45:01+00:00,1.31,2.46,6.48,200.21,0.85,38.45,27.87,27.87,27.87,59,1008,3.1,188,100,2587.0,1.0,,1.0
Damoh,23.839054,79.441025,2025-10-25 12:45:06+00:00,71.52,73.25,3.17,322.18,2.1,79.08,23.35,23.35,23.35,82,1010,1.75,239,100,18851.0,4.0,,1.0
Chintamani,13.401969,78.055138,2025-10-25 12:45:28+00:00,8.13,10.58,9.7,210.22,1.95,48.84,22.71,22.71,22.71,61,1010,0.98,295,68,,,,
Baramulla,34.202148,74.348259,2025-10-25 12:45:29+00:00,63.94,106.65,26.11,702.35,5.61,101.98,14.39,14.39,14.39,44,1016,2.76,222,0,5935.0,5.0,0.0,5.0
Murshidabad,24.175903,88.280182,2025-10-25 12:45:32+00:00,213.9,240.89,19.66,782.62,19.9,100.06,27.61,27.61,27.61,57,1009,3.04,28,58,24883.0,4.0,1.0,8.0
Bheemili,17.887518,83.445679,2025-10-25 12:45:56+00:00,2.87,4.86,0.1,201.28,0.19,68.11,28.64,28.64,28.64,80,1010,3.75,66,82,158.0,,,
Patiala,30.34,76.379997,2025-10-25 12:45:59+00:00,58.92,77.53,12.1,414.54,6.68,112.14,25.62,25.62,25.62,42,1011,2.45,24,0,35939.0,142.0,,53.0
Kochi,9.939093,76.270523,2025-10-25 12:43:43+00:00,1.96,6.88,0.36,81.24,0.35,44.95,28.01,28.01,28.01,80,1010,2.38,213,99,11165.0,43.0,2.0,17.0
Muzaffarpur,26.121473,85.368752,2025-10-25 12:46:40+00:00,126.29,143.53,17.04,656.34,5.57,45.87,28.55,28.55,28.55,47,1009,1.78,342,99,26814.0,20.0,,23.0
Hoskote,13.07,77.800003,2025-10-25 12:47:05+00:00,8.63,10.61,5.89,181.61,0.94,52.38,26.08,25.04,26.14,64,1010,3.09,210,40,,,,
Kalol,22.606001,73.462997,2025-10-25 12:47:06+00:00,4.98,5.91,6.11,215.37,3.82,44.36,28.29,28.29,28.29,65,1007,1.89,122,99,,,,
Kakinada,16.989065,82.247467,2025-10-25 12:47:08+00:00,3.62,4.89,0.48,193.5,0.5,66.43,26.42,26.42,26.42,82,1009,2.39,78,100,24293.0,54.0,,15.0
Panchkula,30.695202,76.854172,2025-10-25 12:47:24+00:00,50.48,66.45,15.91,443.02,3.77,82.27,23.07,23.07,23.07,56,1011,2.11,7,0,7728.0,42.0,1.0,3.0
Greater Noida,28.474388,77.50399,2025-10-25 12:47:33+00:00,69.11,94.0,25.66,517.22,5.74,90.74,28.05,28.05,28.05,26,1010,1.5,116,0,,,,
Barwani,22.030001,74.900002,2025-10-25 12:47:35+00:00,6.76,7.61,6.67,271.59,2.46,27.47,26.96,26.96,26.96,68,1009,3.68,91,100,1433.0,7.0,0.0,63.0
Hubballi,15.364708,75.123955,2025-10-25 12:47:50+00:00,1.96,2.42,1.03,118.23,0.2,66.58,27.1,27.1,27.1,74,1010,2.06,200,20,,,,
Udamanda,30.321989,79.195412,2025-10-25 12:47:51+00:00,90.93,112.11,16.6,558.53,15.07,83.11,14.92,14.92,14.92,72,1015,0.41,244,0,,,,
Deoghar,24.482775,86.695175,2025-10-25 12:47:53+00:00,234.27,256.11,22.53,935.65,47.23,96.7,26.6,26.6,26.6,55,1010,1.71,50,80,4252.0,15.0,,10.0
North Paravoor,10.140487,76.23053,2025-10-25 12:47:58+00:00,1.85,5.43,0.38,80.82,0.33,42.31,27.97,27.97,27.97,83,1010,0.51,230,40,,,,
Hazira,21.116226,72.651802,2025-10-25 12:48:01+00:00,8.77,9.79,5.08,258.58,5.69,60.21,28.98,28.98,28.98,84,1006,2.06,90,75,7.0,1.0,,0.0
Bargadi Magath,26.983795,80.92907,2025-10-25 12:48:04+00:00,92.88,103.41,7.24,453.06,3.6,102.13,29.0,29.0,29.0,44,1010,2.04,29,3,,,,
Tarabai Park,16.713512,74.248749,2025-10-25 12:48:06+00:00,1.22,1.88,1.03,128.2,0.37,64.43,23.25,23.25,23.25,81,1009,2.02,201,100,117.0,,,
Kanchrapara,22.94923,88.420921,2025-10-25 12:48:10+00:00,51.54,60.26,5.29,349.83,4.97,70.6,27.51,27.51,27.51,56,1009,0.3,42,5,,,,
Puttur,12.768676,75.207062,2025-10-25 12:48:11+00:00,1.81,3.61,0.43,94.1,0.25,44.49,23.13,23.13,23.13,94,1009,1.07,230,91,496.0,1.0,,0.0
Ambala City,30.37818,76.776695,2025-10-25 12:48:15+00:00,55.44,72.37,16.94,449.25,4.94,91.92,24.77,24.77,24.77,47,1011,1.88,356,0,,,,
Faridkot,30.678186,74.739555,2025-10-25 12:48:17+00:00,53.49,81.06,12.55,425.62,6.25,96.99,26.62,26.62,26.62,26,1011,1.37,13,0,5564.0,2.0,,1.0
Osmanabad,18.186066,76.041939,2025-10-25 12:48:24+00:00,2.54,3.72,8.37,237.02,1.0,36.75,25.22,25.22,25.22,71,1009,1.59,146,100,7938.0,12.0,,12.0
Raichur,16.200829,77.362289,2025-10-25 12:49:03+00:00,8.07,9.95,12.15,237.47,6.75,47.08,28.05,28.05,28.05,59,1008,2.47,169,98,13588.0,45.0,0.0,13.0
Chitradurga,14.23,76.400002,2025-10-25 12:49:32+00:00,2.66,3.54,4.7,148.55,0.38,39.43,24.53,24.53,24.53,67,1009,3.66,293,100,7518.0,70.0,0.0,26.0
Mysore division,12.311827,76.652985,2025-10-25 12:50:08+00:00,13.44,18.8,12.69,269.31,3.68,39.97,25.01,25.01,25.01,73,1010,2.57,310,75,,,,
Lalitpur,24.68786,78.412018,2025-10-25 12:50:12+00:00,72.07,73.67,2.81,311.53,3.38,100.78,28.13,28.13,28.13,48,1010,3.31,50,95,15194.0,4.0,,1.0
Agar Malwa,23.710348,76.010178,2025-10-25 12:50:34+00:00,20.36,21.15,3.57,273.22,1.64,72.07,25.13,25.13,25.13,68,1010,1.32,213,100,661.0,2.0,0.0,2.0
Shamli,29.448055,77.31028,2025-10-25 12:50:44+00:00,72.59,96.18,35.67,697.38,11.84,90.74,24.26,24.26,24.26,33,1011,0.88,116,0,2923.0,28.0,0.0,5.0
Mansoorabad,17.351372,78.565407,2025-10-25 12:50:51+00:00,13.23,14.65,4.78,246.11,2.61,51.8,23.18,23.18,23.67,88,1010,2.06,0,75,,,,
Tirupati,13.629065,79.424446,2025-10-25 12:50:52+00:00,26.79,31.3,11.67,407.03,1.45,29.55,27.71,27.71,27.71,78,1009,3.09,60,75,24314.0,169.0,,62.0
Sojat,25.923853,73.665131,2025-10-25 12:51:21+00:00,51.13,62.41,3.07,241.65,5.9,132.92,27.51,27.51,27.51,26,1010,3.46,53,0,1488.0,1.0,,0.0
Gondia,21.459801,80.195,2025-10-25 12:51:27+00:00,26.74,27.88,4.59,320.81,2.26,50.24,23.96,23.96,23.96,77,1010,1.41,3,87,631.0,1.0,,0.0
Bhadravati,13.84,75.702003,2025-10-25 12:51:33+00:00,5.28,6.45,4.73,162.26,0.79,50.64,22.0,22.0,22.0,89,1010,3.18,261,100,1464.0,6.0,,0.0
Balrampur,27.429707,82.176804,2025-10-25 12:51:37+00:00,103.34,125.55,11.89,544.16,13.56,101.35,25.5,25.5,25.5,50,1010,2.85,315,0,3754.0,15.0,,17.0
Kawardha,22.008951,81.224342,2025-10-25 12:51:48+00:00,90.53,95.37,11.39,455.93,13.43,47.39,23.24,23.24,23.24,73,1011,1.46,345,71,143.0,0.0,,4.0
Nellore,14.442599,79.986458,2025-10-25 12:51:51+00:00,30.52,35.5,16.42,450.09,2.14,19.03,26.86,26.86,26.86,77,1009,2.51,78,95,7507.0,7.0,,2.0
Karimnagar,18.438555,79.128838,2025-10-25 12:52:00+00:00,7.33,9.2,7.49,281.67,3.25,46.35,25.84,25.84,25.84,76,1009,2.38,85,83,19634.0,7.0,,7.0
Lonavala,18.74806,73.407219,2025-10-25 12:52:20+00:00,2.01,3.98,1.11,166.99,0.34,58.09,22.74,22.74,22.74,86,1008,0.52,341,100,,,,
Sujangarh,27.696903,74.452972,2025-10-25 12:52:21+00:00,49.48,74.93,4.7,254.98,5.98,137.23,27.88,27.88,27.88,26,1011,4.13,37,0,,,,
Kothrud,18.50989,73.807182,2025-10-25 12:52:23+00:00,1.27,1.65,1.87,172.9,0.43,55.52,22.75,22.75,22.75,87,1008,0.88,237,100,2121.0,8.0,,1.0
Haridwar,29.94569,78.164246,2025-10-25 12:52:28+00:00,148.27,208.47,78.23,1676.21,44.71,63.1,23.69,23.69,23.69,52,1012,1.47,54,0,22739.0,122.0,3.0,19.0
Vashi,19.077065,72.998993,2025-10-25 12:52:40+00:00,2.98,5.86,0.35,172.66,0.19,67.4,29.02,26.97,29.02,79,1007,3.6,230,75,26.0,,,
Moradabad,28.841064,78.795319,2025-10-25 12:52:44+00:00,99.03,129.92,27.05,677.62,15.28,107.32,24.23,24.23,24.23,35,1011,1.3,350,0,34582.0,185.0,,1852.0
Chirimiri,23.18795,82.354164,2025-10-25 12:53:08+00:00,180.52,192.6,11.44,390.27,17.83,59.67,22.55,22.55,22.55,69,1011,1.82,346,98,483.0,2.0,,0.0
Gorakhpur,26.765844,83.364944,2025-10-25 12:53:27+00:00,103.95,124.27,19.84,713.32,8.84,63.4,26.68,26.68,26.68,45,1010,2.48,318,1,47769.0,20.0,,3.0
Siwan,26.219622,84.356659,2025-10-25 12:53:51+00:00,95.96,112.72,12.86,586.35,4.41,29.59,28.28,28.28,28.28,49,1010,2.23,324,100,24812.0,1.0,,4.0
Jharsuguda,21.85,84.029999,2025-10-25 12:54:08+00:00,73.64,78.6,3.84,285.48,4.28,65.51,26.06,26.06,26.06,83,1010,1.03,100,40,2062.0,23.0,0.0,0.0
Adambakkam,12.981241,80.20945,2025-10-25 12:54:14+00:00,42.12,45.73,21.59,501.24,5.35,24.7,25.08,24.63,27.82,95,1008,1.54,0,75,,,,
Chhapra,25.779566,84.749886,2025-10-25 12:54:16+00:00,100.28,112.12,7.43,436.9,3.05,63.37,27.71,27.71,27.71,56,1010,2.19,228,91,14.0,,,
Surat,21.17024,72.831062,2025-10-25 12:54:20+00:00,8.23,9.33,6.6,267.37,6.27,57.18,28.94,28.94,28.94,84,1006,2.06,90,75,72866.0,153.0,,77.0
Sheopur,25.67,76.699997,2025-10-25 12:54:51+00:00,75.7,80.2,5.11,341.96,9.16,139.36,26.68,26.68,26.68,41,1010,3.44,34,2,651.0,4.0,0.0,4.0
Phagwara,31.22402,75.770798,2025-10-25 12:55:12+00:00,58.18,79.83,11.8,440.73,6.64,95.1,25.17,25.17,25.17,40,1011,1.91,58,0,,,,
Sendhwa,21.681898,75.094269,2025-10-25 12:55:13+00:00,7.25,7.86,5.6,281.45,1.27,34.38,25.02,25.02,25.02,72,1009,4.04,71,97,14.0,2.0,,0.0
Daman,20.397373,72.832802,2025-10-25 12:55:16+00:00,3.53,5.94,3.78,216.19,3.18,59.15,25.97,25.97,25.97,86,1007,2.44,211,100,3379.0,89.0,,3.0
Narnaul,28.065796,76.101479,2025-10-25 12:55:38+00:00,65.47,92.52,18.64,470.72,8.4,109.57,26.81,26.81,26.81,24,1011,2.15,18,0,1908.0,6.0,0.0,0.0
Deesa,24.258503,72.190674,2025-10-25 12:55:43+00:00,67.33,79.79,2.76,272.21,5.75,129.36,29.24,29.24,29.24,29,1008,3.36,50,0,,,,
Nabha,30.373674,76.145187,2025-10-25 12:55:45+00:00,59.91,79.86,12.21,409.77,7.84,116.3,26.37,26.37,26.37,37,1011,2.28,22,0,,,,
Zirakpur,30.642803,76.816902,2025-10-25 12:55:46+00:00,50.48,66.45,15.91,443.02,3.77,82.27,23.67,23.67,23.67,53,1011,2.05,353,0,,,,
Chachiyawas,26.570478,74.674438,2025-10-25 12:55:48+00:00,61.2,76.47,3.67,275.78,6.31,142.28,25.07,25.07,25.07,27,1011,2.11,36,0,,,,
Kila,28.23801,77.854912,2025-10-25 12:55:49+00:00,75.85,101.23,22.0,515.0,6.48,93.07,26.54,26.54,26.54,29,1011,1.28,183,0,6.0,,,
Raigarh,21.9,83.400002,2025-10-25 12:55:54+00:00,57.18,60.71,2.34,249.07,2.36,69.36,25.41,25.41,25.41,65,1010,0.78,97,33,8828.0,30.0,,3.0
Haldia,22.066673,88.069809,2025-10-25 12:56:13+00:00,4.39,5.02,0.13,191.71,0.07,50.94,27.46,27.46,27.46,64,1009,0.53,203,0,1535.0,42.0,,14.0
Bidar,17.92,77.519722,2025-10-25 12:56:17+00:00,13.21,14.35,8.23,248.03,3.97,56.39,24.59,24.59,24.59,76,1009,1.16,158,90,14229.0,62.0,0.0,544.0
Nipani,16.4,74.383301,2025-10-25 12:56:35+00:00,1.29,2.2,0.82,122.62,0.31,65.78,23.38,23.38,23.38,78,1009,2.83,213,100,24.0,,,
Dhamtari,20.709999,81.550003,2025-10-25 12:56:39+00:00,3.47,4.14,1.16,169.73,0.14,18.82,24.27,24.27,24.27,81,1010,2.08,50,51,3779.0,5.0,0.0,9.0
Bilaspur,22.078642,82.152328,2025-10-25 12:56:53+00:00,76.06,82.0,10.24,385.47,11.08,57.44,24.77,24.77,24.77,68,1010,2.18,310,90,18776.0,15.0,,0.0
Jagdalpur,19.07,82.029999,2025-10-25 12:57:08+00:00,18.67,19.87,2.95,230.71,0.76,35.3,22.08,22.08,22.08,87,1010,2.62,88,32,,,,
Bhavani,11.452434,77.693253,2025-10-25 12:57:10+00:00,5.81,8.26,10.47,212.43,1.8,28.16,28.7,28.7,28.7,75,1009,1.95,325,100,2248.0,2.0,,1.0
Jaisalmer,26.911661,70.922928,2025-10-25 12:57:15+00:00,45.78,97.89,1.3,184.8,3.53,129.88,31.76,31.76,31.76,15,1009,3.76,47,0,7679.0,192.0,,299.0
Puthoor,9.04,76.709999,2025-10-25 12:58:10+00:00,2.13,9.17,0.54,81.67,0.48,45.23,24.61,24.61,24.61,90,1010,0.49,305,81,58.0,0.0,,26.0
Berhampore,24.098827,88.267929,2025-10-25 12:58:16+00:00,213.9,240.89,19.66,782.62,19.9,100.06,27.66,27.66,27.66,57,1009,3.02,25,38,4330.0,0.0,1.0,2.0
Mira Bhayandar,19.295233,72.854393,2025-10-25 12:58:22+00:00,2.93,5.74,0.5,176.36,0.36,67.76,26.99,26.99,29.03,75,1007,5.57,176,100,,,,
Khadki,18.569937,73.850639,2025-10-25 12:58:24+00:00,1.27,1.65,1.87,172.9,0.43,55.52,23.54,23.54,23.54,85,1008,0.63,245,100,,,,
Barasat,22.726156,88.47496,2025-10-25 12:58:27+00:00,16.3,18.97,1.22,217.68,1.95,69.88,29.94,29.94,29.94,66,1009,2.06,70,40,,,,
Sonepat,28.928574,77.091492,2025-10-25 12:58:29+00:00,64.3,85.56,19.29,449.58,6.77,109.88,26.47,26.47,26.47,28,1011,3.07,42,0,,,,
Nawapara Nagar,20.973513,81.857948,2025-10-25 12:58:30+00:00,5.33,6.07,1.4,172.33,0.27,28.13,26.1,26.1,26.1,78,1010,3.06,34,78,,,,
Bally,22.655149,88.340553,2025-10-25 12:58:32+00:00,19.04,21.63,1.36,220.95,2.35,75.4,29.98,29.98,29.98,66,1009,2.06,70,40,,,,
Ghansoli,19.125362,72.999199,2025-10-25 12:58:34+00:00,2.98,5.86,0.35,172.66,0.19,67.4,29.01,26.96,29.01,79,1007,3.6,230,75,14.0,,,
Aligarh,27.900383,78.072281,2025-10-25 12:58:37+00:00,84.37,107.26,17.99,493.57,7.28,103.12,26.58,26.58,26.58,28,1011,0.45,175,0,30782.0,217.0,,6.0
Kadi,23.29785,72.331001,2025-10-25 12:59:02+00:00,32.94,35.61,2.93,257.59,3.59,107.82,30.3,30.3,30.3,35,1007,4.08,17,4,,,,
Machilipatnam,16.17,81.129997,2025-10-25 12:59:04+00:00,3.35,4.24,0.24,219.03,0.25,66.25,25.95,25.95,25.95,87,1009,3.96,93,76,5150.0,7.0,0.0,1.0
Jamui,24.92,86.220001,2025-10-25 12:59:11+00:00,176.68,194.85,10.7,636.97,18.9,97.85,27.24,27.24,27.24,52,1010,1.01,355,79,1053.0,,,
Amalsad,20.817595,72.954918,2025-10-25 12:59:21+00:00,5.26,6.49,6.22,253.12,5.01,53.38,26.08,26.08,26.08,82,1006,0.38,338,100,,,,
Pathardi Phata,19.946922,73.765434,2025-10-25 12:59:23+00:00,4.55,6.44,8.87,256.02,5.66,40.07,24.06,24.06,24.06,80,1008,2.12,207,100,,,,
Nadiad,22.700001,72.870003,2025-10-25 12:59:24+00:00,6.58,7.61,5.5,218.75,3.17,49.84,29.84,29.84,29.84,55,1007,3.91,120,98,,,,
Chikhli,20.349098,76.265289,2025-10-25 12:59:26+00:00,5.65,6.19,2.95,241.51,0.55,39.83,23.28,23.28,23.28,85,1009,3.18,84,99,378.0,3.0,,0.0
Krishnagiri,12.518611,78.213737,2025-10-25 12:59:31+00:00,21.46,27.72,17.9,332.91,5.74,46.38,24.96,24.96,24.96,68,1009,0.67,253,100,31827.0,133.0,,219.0
Katni,23.833717,80.420609,2025-10-25 13:00:01+00:00,140.48,143.24,2.61,328.8,2.67,107.83,25.5,25.5,25.5,65,1010,2.04,155,100,2708.0,17.0,,7.0
Ooty,11.41,76.699997,2025-10-25 13:00:18+00:00,5.89,8.31,6.46,158.42,2.03,32.72,11.46,11.46,11.46,97,1014,1.25,203,73,,,,
Hajipur,25.68,85.220001,2025-10-25 13:00:20+00:00,134.32,148.38,6.58,534.23,5.67,79.47,28.99,28.99,28.99,70,1010,2.06,240,75,4307.0,7.0,,0.0
Malad East,19.180874,72.857452,2025-10-25 13:00:27+00:00,2.98,5.86,0.35,172.66,0.19,67.4,26.73,26.73,28.77,89,1007,3.6,230,75,,,,
Davangere,14.470586,75.914154,2025-10-25 13:00:29+00:00,3.3,4.01,4.8,155.96,0.71,45.47,23.11,23.11,23.11,79,1010,4.31,243,98,,,,
Karjat,18.920902,73.323097,2025-10-25 13:00:31+00:00,2.26,4.96,0.68,165.05,0.25,62.18,25.18,25.18,25.18,87,1008,1.07,25,100,685.0,1.0,,1.0
Kattuvilai,8.158933,77.336746,2025-10-25 13:00:36+00:00,2.11,10.82,0.52,83.79,0.46,42.88,26.85,26.85,26.85,96,1009,4.54,313,98,,,,
Kalamassery,10.051969,76.315773,2025-10-25 13:00:37+00:00,1.85,5.43,0.38,80.82,0.33,42.31,27.9,27.9,27.9,83,1010,0.51,230,40,,,,
Bijapur,16.827545,75.725327,2025-10-25 13:00:39+00:00,0.74,1.15,4.58,163.49,0.35,46.92,28.22,28.22,28.22,52,1008,4.07,221,100,615.0,0.0,,4.0
Kajamalai,10.775632,78.69236,2025-10-25 13:00:57+00:00,8.79,12.99,20.87,312.46,2.76,11.22,31.95,31.95,31.95,70,1008,2.06,100,75,236.0,,,
Malda,25.010841,88.141098,2025-10-25 13:01:01+00:00,203.72,221.96,12.36,621.56,20.01,93.58,26.9,26.9,26.9,62,1010,2.23,81,75,3.0,0.0,,1.0
Dadabari,25.155169,75.827248,2025-10-25 13:01:07+00:00,61.24,63.73,1.53,279.34,3.47,125.29,27.54,27.54,27.54,38,1010,3.22,26,1,,,,
Anantapur,14.685564,77.595406,2025-10-25 13:01:12+00:00,5.59,7.36,4.83,173.66,0.6,54.91,27.41,27.41,27.41,60,1008,2.03,52,91,31830.0,41.0,,18.0
Nawada,24.879999,85.529999,2025-10-25 13:01:50+00:00,121.4,132.81,7.63,414.98,8.42,85.77,26.85,26.85,26.85,54,1010,0.86,353,98,1669.0,6.0,,13.0
Bikaner,28.027138,73.302155,2025-10-25 13:02:00+00:00,43.78,84.35,3.41,209.98,3.92,128.19,30.68,30.68,30.68,19,1010,3.18,54,0,35435.0,75.0,0.0,1426.0
Falta,22.296404,88.120995,2025-10-25 13:03:03+00:00,11.05,12.48,0.65,205.44,0.85,58.65,27.72,27.72,27.72,57,1009,1.45,309,2,650.0,1.0,,0.0
Puri,19.817743,85.828629,2025-10-25 13:03:11+00:00,4.89,6.36,0.15,211.5,0.11,61.8,26.96,26.96,26.96,80,1010,4.18,70,2,21168.0,0.0,,2.0
Vikramasingapuram,8.699142,77.411041,2025-10-25 13:03:34+00:00,1.71,5.99,0.64,83.1,0.47,40.45,26.71,26.71,26.71,83,1010,3.01,261,80,,,,
Faizabad,26.77,82.150002,2025-10-25 13:03:36+00:00,101.72,117.7,9.13,508.67,7.85,89.37,26.68,26.68,26.68,45,1010,1.38,344,0,9476.0,1.0,,0.0
Kurukshetra,29.969513,76.878281,2025-10-25 13:03:58+00:00,54.41,69.58,21.99,475.48,4.79,85.61,25.41,25.41,25.41,38,1011,0.15,274,0,22021.0,34.0,0.0,4.0
Jalukbari,26.144358,91.642067,2025-10-25 13:04:18+00:00,54.85,61.9,7.18,332.49,1.52,51.95,28.0,28.0,28.0,78,1010,0.0,0,40,,,,
Naini,25.393978,81.85405,2025-10-25 13:04:19+00:00,83.2,88.01,6.79,330.22,10.65,89.89,28.71,28.71,28.71,53,1010,2.11,100,98,86.0,,,
Jaipur,26.92207,75.778885,2025-10-25 13:04:23+00:00,65.63,85.1,7.75,325.01,5.23,128.48,28.68,28.68,28.68,28,1011,2.57,50,0,77651.0,40.0,3.0,13.0
Kamptee,21.207769,79.184052,2025-10-25 13:04:48+00:00,13.44,14.78,10.35,280.32,8.63,42.13,25.19,25.19,25.19,88,1010,1.54,10,75,,,,
Dharavi,19.044218,72.85598,2025-10-25 13:04:49+00:00,2.98,5.86,0.35,172.66,0.19,67.4,29.01,26.97,29.01,79,1007,3.6,230,75,198.0,7.0,,0.0
Chomu,27.17,75.720001,2025-10-25 13:04:53+00:00,64.09,86.14,9.16,331.13,5.53,126.79,25.33,25.33,25.33,27,1011,2.85,59,0,2066.0,1.0,,0.0
Mudhol,16.333309,75.28582,2025-10-25 13:04:58+00:00,1.58,1.93,3.32,149.77,0.29,42.56,25.88,25.88,25.88,65,1008,3.81,199,100,,,,
Jamnagar,22.470701,70.057732,2025-10-25 13:05:00+00:00,19.82,21.06,3.17,250.87,2.49,85.82,32.52,32.52,32.52,44,1006,5.99,61,97,6253.0,5.0,0.0,0.0
Hojai,26.006807,92.866402,2025-10-25 13:05:07+00:00,40.35,46.86,9.68,315.19,2.02,33.52,23.94,23.94,23.94,82,1010,1.65,313,62,1670.0,14.0,,9.0
Agra,27.17667,78.008072,2025-10-25 13:05:13+00:00,83.85,95.74,5.59,376.4,5.7,117.21,27.84,27.84,27.84,25,1010,1.75,35,0,25637.0,5.0,1.0,45.0
Morena,26.5,78.0,2025-10-25 13:05:30+00:00,66.01,70.5,2.55,329.84,4.14,130.54,27.23,27.23,27.23,37,1010,1.72,59,0,12389.0,3.0,,17.0
Kalyan,19.242439,73.120193,2025-10-25 13:05:58+00:00,2.59,5.3,0.84,175.33,0.53,65.19,26.09,26.09,26.09,84,1007,1.83,78,100,1958.0,6.0,,1.0
Dadri,28.54619,77.556213,2025-10-25 13:06:03+00:00,69.11,94.0,25.66,517.22,5.74,90.74,27.38,27.38,27.38,27,1011,1.65,75,0,2223.0,,,
Hansi,29.102377,75.965996,2025-10-25 13:06:09+00:00,53.35,75.96,9.11,313.85,6.61,127.37,26.45,26.45,26.45,26,1011,2.46,79,0,1059.0,6.0,0.0,0.0
Bundi,25.430513,75.649902,2025-10-25 13:06:14+00:00,76.08,81.41,3.29,331.34,9.7,147.4,26.71,26.71,26.71,30,1010,2.28,29,0,3889.0,3.0,,0.0
Ujjain,23.1793,75.784912,2025-10-25 13:06:33+00:00,7.55,8.09,3.56,253.15,1.25,52.97,25.03,25.03,25.03,67,1010,4.63,139,100,17688.0,29.0,0.0,4.0
Ejipura,12.942621,77.627121,2025-10-25 13:07:04+00:00,12.39,16.04,9.54,233.0,2.04,58.3,24.97,24.28,26.12,69,1010,2.06,230,40,457.0,1.0,1.0,0.0
Noida,28.535517,77.391029,2025-10-25 13:07:14+00:00,66.83,90.83,21.24,468.51,5.65,98.72,26.19,26.19,26.19,23,1010,1.46,108,0,16987.0,37.0,,71.0
Bongaon,23.07,88.82,2025-10-25 13:07:26+00:00,79.09,95.27,10.17,500.52,10.14,68.88,27.5,27.5,27.5,57,1009,1.83,81,5,3703.0,4.0,2.0,25.0
Dalkhola,25.874945,87.845551,2025-10-25 13:07:36+00:00,139.03,156.4,15.42,573.59,15.24,72.91,27.27,27.27,27.27,57,1010,0.67,44,92,,,,
Katihar,25.533508,87.583748,2025-10-25 13:07:37+00:00,165.2,180.2,14.36,619.32,19.04,90.6,27.89,27.89,27.89,54,1010,0.57,57,67,24122.0,15.0,,12.0
Bhankrota,26.87063,75.693398,2025-10-25 13:08:01+00:00,65.63,85.1,7.75,325.01,5.23,128.48,28.87,28.87,28.87,28,1011,2.57,50,0,,,,
Andheri,19.116625,72.862358,2025-10-25 13:08:03+00:00,2.98,5.86,0.35,172.66,0.19,67.4,28.82,26.78,28.82,79,1007,3.6,230,75,2.0,,,
Tuticorin,8.764166,78.134834,2025-10-25 13:08:06+00:00,1.95,4.78,1.42,93.03,0.64,34.31,29.85,29.85,29.85,67,1008,2.31,253,98,,,,
Pollachi,10.657274,77.010666,2025-10-25 13:08:08+00:00,3.91,6.02,7.15,150.34,2.01,21.28,24.32,24.32,24.32,85,1010,5.43,273,11,7952.0,5.0,,7.0
Thane,19.21833,72.978088,2025-10-25 13:08:15+00:00,2.93,5.74,0.5,176.36,0.36,67.76,28.98,26.94,28.98,79,1007,3.6,230,75,8057.0,52.0,1.0,51.0
North Lakhimpur,27.236317,94.09584,2025-10-25 13:08:28+00:00,13.97,16.79,3.03,201.4,0.67,28.8,22.12,22.12,22.12,80,1011,2.04,19,0,908.0,0.0,,1.0
Ennore,13.206524,80.327225,2025-10-25 13:08:33+00:00,37.7,41.08,17.01,530.68,3.14,29.23,27.84,27.3,27.86,84,1008,4.82,38,98,,,,
Tirupattur,12.498351,78.560196,2025-10-25 13:08:34+00:00,28.61,37.36,26.72,430.82,10.3,33.47,25.6,25.6,25.6,62,1009,0.89,279,83,10158.0,7.0,,13.0
Motihari,26.65,84.916664,2025-10-25 13:08:42+00:00,94.02,112.59,19.44,661.59,6.5,42.78,27.03,27.03,27.03,55,1010,1.9,335,100,1609.0,1.0,,0.0
Tikamgarh,24.756807,78.839264,2025-10-25 13:08:49+00:00,72.26,73.81,2.54,306.07,3.7,96.5,27.17,27.17,27.17,52,1010,2.81,90,36,1694.0,2.0,0.0,0.0
Borivali,19.228825,72.854118,2025-10-25 13:09:03+00:00,2.93,5.74,0.5,176.36,0.36,67.76,26.88,26.88,28.93,89,1007,3.6,230,75,370.0,4.0,,18.0
Datia,25.665325,78.460938,2025-10-25 13:09:10+00:00,81.11,83.83,5.59,358.49,5.51,100.36,28.17,28.17,28.17,46,1010,3.01,31,58,3327.0,3.0,0.0,0.0
Jorhat,26.757874,94.209824,2025-10-25 13:09:29+00:00,15.4,17.0,4.36,188.38,0.64,39.82,23.24,23.24,23.24,84,1011,2.66,62,0,4942.0,29.0,,9.0
Cuttack,20.462521,85.882988,2025-10-25 13:09:37+00:00,10.06,12.23,1.48,233.75,0.45,50.8,27.1,27.1,27.1,80,1010,3.0,117,95,9560.0,19.0,,6.0
Vadodara,22.310696,73.192635,2025-10-25 13:10:03+00:00,15.04,16.64,19.75,324.27,23.16,27.54,31.01,31.01,31.01,62,1007,3.09,60,40,45797.0,139.0,,101.0
Sikar,27.615406,75.125885,2025-10-25 13:10:37+00:00,55.2,81.18,6.21,288.57,6.82,136.04,26.28,26.28,26.28,28,1011,3.43,30,0,43821.0,5.0,,1.0
Dewas,22.962267,76.050797,2025-10-25 13:11:15+00:00,8.82,9.51,4.9,259.55,1.76,49.09,23.53,23.53,23.53,73,1010,3.23,127,99,10231.0,26.0,0.0,2.0
Alwar,27.560932,76.625015,2025-10-25 13:12:12+00:00,66.8,90.41,14.86,396.2,4.89,103.64,26.42,26.42,26.42,29,1011,1.4,318,0,24843.0,4.0,,8.0
Malegaon,20.560797,74.52507,2025-10-25 13:12:47+00:00,10.8,13.51,6.97,308.76,3.62,34.06,25.14,25.14,25.14,78,1008,4.57,72,100,423.0,,,
Bapatla,15.896622,80.460434,2025-10-25 13:12:52+00:00,5.54,7.24,3.15,255.2,1.11,48.78,26.48,26.48,26.48,84,1009,3.31,108,98,15540.0,19.0,,205.0
Hanumangarh,29.625996,74.287491,2025-10-25 13:14:16+00:00,51.57,103.77,3.94,251.28,5.37,115.82,27.6,27.6,27.6,21,1010,1.56,38,0,20416.0,11.0,,3.0
Devlali,19.906166,73.824265,2025-10-25 13:14:53+00:00,5.3,6.83,11.14,279.25,6.84,31.0,24.43,24.43,24.43,79,1008,1.97,204,100,,,,
Sunam,30.129999,75.800003,2025-10-25 13:14:54+00:00,61.61,84.85,11.65,398.51,7.95,123.89,26.59,26.59,26.59,33,1011,1.81,5,0,531.0,1.0,,0.0
Vastral,22.99988,72.660614,2025-10-25 13:15:00+00:00,13.4,14.83,4.47,230.76,2.71,68.99,30.53,30.53,30.53,52,1007,3.27,127,100,4.0,,,
Bareilly,28.375694,79.435959,2025-10-25 13:15:05+00:00,96.35,121.93,15.07,537.78,12.45,101.87,24.31,24.31,24.31,37,1011,1.49,351,0,15531.0,51.0,,11.0
Nanded,19.169815,77.319717,2025-10-25 13:16:21+00:00,5.96,6.76,6.77,239.07,1.38,41.36,25.1,25.1,25.1,88,1009,1.03,30,75,17886.0,29.0,,20.0
Umred,20.861378,79.317856,2025-10-25 13:17:06+00:00,15.77,17.01,14.03,273.36,15.33,39.02,23.25,23.25,23.25,90,1010,2.5,45,75,1122.0,11.0,,2.0
Hubli,15.371598,75.101166,2025-10-25 13:17:14+00:00,1.96,2.42,1.03,118.23,0.2,66.58,26.05,26.05,26.05,83,1010,6.17,240,40,,,,
Barrackpore,22.767427,88.388344,2025-10-25 13:17:16+00:00,19.04,21.63,1.36,220.95,2.35,75.4,29.98,29.98,29.98,66,1009,1.54,80,40,32674.0,223.0,0.0,0.0
Shajapur,23.4333,76.266701,2025-10-25 13:17:34+00:00,18.65,19.38,3.86,274.09,1.64,65.17,24.42,24.42,24.42,70,1010,3.94,156,69,1385.0,5.0,,246.0
Jalandhar,31.326015,75.57618,2025-10-25 13:17:51+00:00,58.72,80.57,11.53,441.65,6.27,96.11,26.27,26.27,26.27,34,1011,1.39,37,0,46913.0,40.0,0.0,47.0
Gandhinagar,23.23756,72.647781,2025-10-25 13:18:16+00:00,25.34,27.67,3.05,250.37,3.28,103.52,30.83,30.83,30.83,48,1007,2.57,80,20,6886.0,17.0,,4.0
Jalaun,26.140644,79.355621,2025-10-25 13:18:23+00:00,76.87,81.27,2.96,343.05,5.12,107.78,28.49,28.49,28.49,48,1010,1.15,62,51,9942.0,8.0,1.0,0.0
Rupnagar,30.975254,76.527328,2025-10-25 13:18:43+00:00,53.08,71.27,14.08,435.92,5.35,88.07,23.64,23.64,23.64,48,1011,2.16,332,0,5821.0,14.0,,13.0
Adyar,13.003387,80.255043,2025-10-25 13:18:51+00:00,36.49,39.53,16.84,528.08,3.17,29.1,26.2,24.58,27.79,90,1008,1.03,0,75,6032.0,22.0,5.0,0.0
Guwahati,26.148043,91.731377,2025-10-25 13:19:02+00:00,54.85,61.9,7.18,332.49,1.52,51.95,28.0,28.0,28.0,78,1010,0.0,0,40,3515.0,7.0,,0.0
Bhiwani,28.799046,76.133514,2025-10-25 13:19:08+00:00,54.83,75.42,11.14,324.54,6.11,116.58,26.72,26.72,26.72,25,1011,2.49,32,0,17094.0,16.0,,0.0
Koyambedu,13.07279,80.176163,2025-10-25 13:19:23+00:00,29.98,33.44,17.63,509.31,2.38,22.72,26.84,24.58,27.79,90,1008,1.03,0,75,,,,
Tiruchengode,11.378476,77.894493,2025-10-25 13:19:27+00:00,10.75,15.34,20.75,330.62,2.89,23.32,26.67,26.67,26.67,72,1008,1.41,12,100,13505.0,6.0,,2.0
Palanpur,24.179331,72.426682,2025-10-25 13:19:38+00:00,68.08,75.14,6.66,288.49,10.37,121.63,28.5,28.5,28.5,31,1008,3.87,73,0,1819.0,1.0,,0.0
Nagercoil,8.17445,77.432159,2025-10-25 13:19:41+00:00,2.05,10.23,0.56,83.78,0.48,42.86,26.92,26.92,26.92,96,1009,4.64,305,98,,,,
Coimbatore,11.017363,76.958885,2025-10-25 13:19:43+00:00,5.55,7.81,8.16,159.96,2.51,30.09,28.78,28.78,28.78,65,1010,2.57,220,40,90381.0,220.0,1.0,183.0
Kanpur,26.449923,80.331871,2025-10-25 13:20:30+00:00,75.29,80.91,4.92,368.14,3.84,119.53,28.0,28.0,28.0,48,1010,1.31,93,65,37895.0,23.0,,17.0
Bellampalli,19.071556,79.491173,2025-10-25 13:20:48+00:00,10.52,11.94,4.26,268.53,1.81,56.11,24.93,24.93,24.93,86,1009,2.68,20,21,,,,
Sangli,16.867634,74.570389,2025-10-25 13:20:49+00:00,1.23,1.64,1.68,141.02,0.45,58.3,23.81,23.81,23.81,77,1008,3.59,224,100,16721.0,75.0,,361.0
Kadapa,14.477234,78.804932,2025-10-25 13:22:07+00:00,7.26,9.76,10.74,258.68,1.59,38.13,27.92,27.92,27.92,65,1008,1.09,17,100,2793.0,7.0,,0.0
Palwan,18.970057,75.72065,2025-10-25 13:22:13+00:00,1.95,2.72,4.4,224.94,0.64,39.68,24.56,24.56,24.56,77,1009,3.22,168,76,,,,
Kurnool,15.834536,78.029366,2025-10-25 13:22:15+00:00,9.5,10.58,4.73,225.77,1.17,52.5,27.57,27.57,27.57,64,1008,1.33,152,83,25669.0,27.0,1.0,50.0
Visakhapatnam,17.686815,83.218483,2025-10-25 13:22:40+00:00,3.64,5.97,0.98,206.26,0.67,63.49,28.78,28.78,28.78,79,1009,3.6,60,40,29354.0,152.0,2.0,74.0
Tirunelveli,8.741222,77.694626,2025-10-25 13:22:53+00:00,2.43,12.13,0.73,83.7,0.6,38.05,28.79,28.79,28.79,65,1008,4.64,271,70,24827.0,71.0,,53.0
Kharar,30.751278,76.637192,2025-10-25 13:23:07+00:00,49.81,65.32,17.72,454.69,4.78,81.58,23.98,23.98,23.98,49,1011,2.08,347,0,12761.0,7.0,1.0,1.0
Vadapalani,13.052192,80.212051,2025-10-25 13:23:22+00:00,31.19,34.79,18.66,469.65,3.33,36.43,26.95,24.57,27.78,90,1008,1.03,0,75,,,,
Bhadrak,21.051182,86.485748,2025-10-25 13:23:23+00:00,10.27,15.33,7.26,293.94,2.41,36.26,25.41,25.41,25.41,83,1010,2.75,116,0,1264.0,4.0,,0.0
Madha,18.033587,75.522079,2025-10-25 13:23:28+00:00,1.81,3.01,7.17,224.53,0.87,37.18,27.44,27.44,27.44,64,1008,0.67,251,95,545186.0,612.0,3.0,4961.0
Ahmednagar,19.101053,74.740677,2025-10-25 13:41:43+00:00,2.25,4.78,7.12,240.31,0.6,25.8,23.58,23.58,23.58,82,1010,4.5,197,100,26564.0,58.0,,1025.0
Adilabad,19.6667,78.533302,2025-10-25 13:43:48+00:00,5.94,7.26,4.09,262.14,0.8,38.03,24.64,24.64,24.64,87,1010,2.68,104,88,10509.0,4.0,,23.0
Alambagh,26.805687,80.914993,2025-10-25 13:44:00+00:00,84.57,93.15,6.87,429.74,4.21,101.52,27.01,27.01,27.01,50,1011,1.03,0,20,,,,
Sangamner,19.581099,74.205009,2025-10-25 13:44:01+00:00,5.23,8.06,10.7,312.09,3.45,27.41,24.48,24.48,24.48,80,1009,2.36,165,98,1773.0,1.0,,130.0
Bettiah,26.799999,84.5,2025-10-25 13:44:09+00:00,90.25,112.34,21.29,721.5,8.33,36.22,25.98,25.98,25.98,55,1011,2.49,312,5,1870.0,,,
Thanjavur,10.786999,79.137825,2025-10-25 13:44:13+00:00,9.53,13.68,21.01,318.97,2.56,8.9,28.75,27.84,28.75,90,1009,0.31,63,100,42067.0,16.0,1.0,513.0
Amritsar,31.63398,74.872261,2025-10-25 13:45:03+00:00,68.61,99.15,12.75,599.67,5.98,99.96,24.97,24.97,24.97,61,1012,1.54,310,0,41470.0,215.0,0.0,104.0
Solapur,17.65992,75.906387,2025-10-25 13:45:29+00:00,2.96,5.19,11.94,258.79,1.13,29.76,27.23,27.23,27.23,63,1009,2.92,118,100,31265.0,138.0,0.0,18.0
Ghatampur,26.147612,80.170769,2025-10-25 13:46:32+00:00,73.29,78.73,4.22,383.02,4.71,94.37,27.11,27.11,27.11,52,1011,2.6,51,7,2427.0,1.0,,79.0
Islampur,26.266701,88.199997,2025-10-25 13:46:38+00:00,106.63,129.1,16.89,624.08,8.68,47.21,25.43,25.43,25.43,63,1011,2.11,55,92,2369.0,6.0,1.0,65.0
Washim,20.1,77.150002,2025-10-25 13:46:49+00:00,5.93,7.0,4.86,246.92,1.9,38.88,23.0,23.0,23.0,85,1010,3.93,108,92,2866.0,0.0,,3.0
Pudukkottai,10.379663,78.820847,2025-10-25 13:47:32+00:00,6.41,9.36,13.45,224.03,2.67,19.99,27.83,27.83,27.83,74,1009,0.94,207,100,46496.0,31.0,,295.0
Malvan,16.0667,73.466698,2025-10-25 13:48:05+00:00,2.32,6.03,0.22,113.2,0.2,53.03,25.84,25.84,25.84,88,1008,8.3,145,100,5.0,,,
Chittoor,24.888744,74.626923,2025-10-25 13:48:10+00:00,57.1,61.61,3.24,310.72,4.58,122.49,25.35,25.35,25.35,34,1011,3.41,36,22,15059.0,64.0,,38.0
Dehradun,30.316496,78.032188,2025-10-25 13:49:54+00:00,137.62,181.81,49.82,1183.38,39.47,103.78,20.32,20.32,20.32,73,1014,2.09,39,0,34659.0,22.0,,19.0
Kargil,34.556335,76.132507,2025-10-25 13:51:29+00:00,35.43,43.89,9.17,299.62,2.09,86.33,9.71,9.71,9.71,28,1019,2.5,268,11,2625.0,3.0,,684.0
Warangal,18.000055,79.588165,2025-10-25 13:54:15+00:00,10.96,13.44,7.48,301.47,1.87,29.6,24.29,24.29,24.29,86,1010,1.35,136,1,14631.0,15.0,,111.0
Kolhapur,16.691307,74.244865,2025-10-25 13:54:31+00:00,1.23,1.89,1.02,120.9,0.39,63.08,22.78,22.78,22.78,82,1010,2.45,197,100,35342.0,81.0,,175.0
Nagaur,27.207006,73.742294,2025-10-25 13:55:21+00:00,44.03,70.24,5.94,256.49,4.84,128.09,27.89,27.89,27.89,23,1011,3.93,67,0,4803.0,18.0,0.0,6.0
Prayagraj,25.473034,81.878357,2025-10-25 13:55:51+00:00,66.42,72.78,8.98,345.71,6.72,71.47,27.82,27.82,27.82,56,1011,2.14,84,99,33346.0,48.0,2.0,192.0
Pithapuram,17.112427,82.252899,2025-10-25 13:56:20+00:00,3.31,6.05,0.33,192.3,0.38,61.85,25.8,25.8,25.8,86,1010,2.54,63,100,1556.0,1.0,,1.0
Kannur,11.874477,75.370369,2025-10-25 13:56:32+00:00,2.74,11.81,0.27,81.8,0.37,45.47,25.0,25.0,25.0,85,1010,2.25,157,23,2234.0,3.0,,0.0
Darbhanga,26.152973,85.901413,2025-10-25 13:56:38+00:00,134.33,156.99,15.9,718.35,15.26,83.93,26.5,26.5,26.5,59,1010,2.77,32,85,26803.0,37.0,,95.0
Vellore,12.934968,79.146881,2025-10-25 13:57:05+00:00,18.06,24.04,17.47,378.46,3.45,8.91,27.45,27.45,27.45,67,1009,1.44,100,89,14959.0,35.0,,62.0
Bicholim,15.601875,73.954636,2025-10-25 13:57:15+00:00,2.25,5.79,0.23,102.38,0.22,52.38,23.6,23.6,23.6,94,1009,2.14,112,99,3525.0,53.0,,24.0
Tirur,10.914627,75.922096,2025-10-25 13:57:26+00:00,3.28,14.76,0.38,81.03,0.46,47.99,27.6,27.6,27.6,91,1011,1.43,184,32,7436.0,19.0,,284.0
Rajsamand,25.0667,73.883301,2025-10-25 13:57:37+00:00,61.46,69.3,3.42,285.79,6.65,129.38,23.5,23.5,23.5,31,1012,2.86,35,0,3815.0,8.0,,305.0
Shrirampur,19.620296,74.654655,2025-10-25 13:58:00+00:00,6.42,9.63,12.57,353.82,3.52,28.78,24.9,24.9,24.9,74,1009,3.33,154,100,1340.0,7.0,,14.0
Jodhpur,26.263863,73.008957,2025-10-25 13:58:05+00:00,33.27,51.84,4.86,210.91,3.1,121.16,28.04,28.04,28.04,25,1011,3.88,62,0,14857.0,6.0,,0.0
Indore,22.719568,75.857727,2025-10-25 13:58:13+00:00,10.15,11.04,3.43,254.71,2.23,59.28,25.09,25.09,25.09,73,1011,3.09,110,40,50543.0,69.0,,38.0
Sathy,11.504776,77.238396,2025-10-25 14:00:42+00:00,6.45,9.68,7.4,182.15,2.15,26.71,25.3,25.3,25.3,80,1010,1.32,0,98,,,,
Kothamangalam,10.065206,76.629128,2025-10-25 14:00:44+00:00,2.71,11.39,0.71,85.18,0.59,44.01,26.84,26.84,26.84,95,1011,0.94,65,86,3617.0,4.0,,462.0
Srinagar,34.083656,74.797371,2025-10-25 14:00:53+00:00,71.84,118.93,14.39,596.47,4.8,105.74,14.62,14.62,14.62,35,1016,1.04,47,0,16243.0,11.0,0.0,5.0
Dimapur,25.906267,93.727592,2025-10-25 14:01:03+00:00,37.3,43.67,6.24,309.76,2.07,40.08,21.61,21.61,21.61,92,1011,1.02,47,4,1764.0,5.0,,0.0
Kannauj,27.055189,79.918083,2025-10-25 14:01:08+00:00,88.63,100.65,7.68,432.6,6.57,104.03,27.45,27.45,27.45,43,1011,1.72,9,1,3814.0,0.0,,4.0
New Delhi,28.6448,77.216721,2025-10-25 14:01:15+00:00,75.23,102.49,26.65,563.93,8.38,113.82,24.04,24.04,24.04,57,1011,2.57,300,0,18105.0,21.0,13.0,4.0
Latur,18.407957,76.576767,2025-10-25 14:01:37+00:00,7.15,8.21,8.68,244.83,1.53,35.64,23.08,23.08,23.08,80,1010,2.47,162,71,31591.0,31.0,0.0,173.0
Shimla,31.104605,77.173424,2025-10-25 14:02:17+00:00,48.8,65.49,18.45,512.91,4.38,68.55,10.95,10.95,10.95,74,1016,1.45,63,0,476.0,,,
Dungargarh,28.095606,74.011116,2025-10-25 14:02:22+00:00,44.63,70.85,4.56,243.6,4.71,124.56,28.22,28.22,28.22,24,1011,4.17,67,0,698.0,,,
Varanasi,25.321684,82.987289,2025-10-25 14:03:35+00:00,77.79,87.18,14.66,321.09,19.4,54.84,26.48,26.48,26.48,63,1011,2.46,109,100,51641.0,40.0,,28.0
Nashik,19.997454,73.789803,2025-10-25 14:04:03+00:00,5.62,8.97,10.58,290.17,5.31,34.63,23.88,23.88,23.88,83,1009,1.55,249,100,43185.0,114.0,0.0,109.0
Mandla,22.597921,80.371384,2025-10-25 14:04:44+00:00,73.13,76.65,5.44,314.17,3.98,68.09,22.8,22.8,22.8,79,1012,1.13,112,100,5181.0,5.0,,324.0
Udumalaipettai,10.5833,77.25,2025-10-25 14:06:17+00:00,5.7,11.6,8.86,190.44,2.42,21.12,23.81,23.81,23.81,84,1010,4.35,272,20,5038.0,9.0,,14.0
Sriperumbudur,12.97378,79.94133,2025-10-25 14:06:23+00:00,32.92,37.42,19.21,489.66,4.83,25.24,25.26,24.95,27.05,94,1009,3.6,51,85,13470.0,235.0,,43.0
Tiruppur,11.110695,77.348045,2025-10-25 14:06:32+00:00,5.72,9.4,7.45,172.14,1.77,24.78,24.9,24.9,24.9,82,1010,4.76,234,69,45711.0,191.0,,36.0
Chennai,13.067439,80.237617,2025-10-25 14:08:11+00:00,33.81,38.97,22.02,529.05,3.25,25.68,27.44,25.13,27.78,90,1009,1.54,0,75,58803.0,292.0,7.0,17.0
Parbhani,19.25779,76.773743,2025-10-25 14:08:42+00:00,5.44,6.36,5.16,230.14,1.1,40.5,24.15,24.15,24.15,83,1010,3.05,112,88,12564.0,19.0,0.0,57.0
Rampur,28.802958,79.025444,2025-10-25 14:09:04+00:00,108.21,138.64,21.54,687.1,13.98,86.27,23.13,23.13,23.13,39,1012,1.65,19,0,18156.0,6.0,,0.0
Harda,22.356426,77.102737,2025-10-25 14:09:23+00:00,15.49,16.21,5.15,272.67,3.95,61.87,23.12,23.12,23.12,73,1011,2.85,102,88,1028.0,1.0,,2.0
Dharampur,20.54014,73.179214,2025-10-25 14:09:36+00:00,4.71,7.43,7.5,246.09,5.2,51.86,24.33,24.33,24.33,93,1008,2.54,206,100,421.0,,,
Salem,11.664325,78.146011,2025-10-25 14:11:48+00:00,8.4,12.07,15.39,279.23,2.84,31.14,24.61,24.61,24.61,82,1010,1.51,78,100,41855.0,72.0,,28.0
Chengalpattu,12.693933,79.975662,2025-10-25 14:12:30+00:00,35.17,39.56,20.72,472.91,8.11,21.88,26.34,26.34,26.34,80,1009,3.46,55,99,13670.0,55.0,0.0,12.0
Mathura,27.492413,77.673676,2025-10-25 14:12:39+00:00,78.17,94.73,10.64,434.87,4.81,104.48,26.44,26.44,26.44,28,1011,1.75,91,0,28981.0,48.0,,16.0
Namakkal,11.229592,78.171158,2025-10-25 14:14:02+00:00,13.48,20.1,28.94,430.61,3.81,26.16,26.38,26.38,26.38,73,1010,0.7,66,95,31574.0,37.0,,50.0
Mangrulpir,20.316135,77.341171,2025-10-25 14:14:27+00:00,6.47,7.8,5.44,261.05,2.17,35.84,23.38,23.38,23.38,87,1010,3.11,105,76,323.0,,,
Vijayawada,16.515099,80.632095,2025-10-25 14:14:31+00:00,6.32,8.6,4.13,272.7,1.22,46.38,26.99,26.99,26.99,83,1010,1.54,180,40,3975.0,2.0,7.0,63.0
Basti,26.822845,82.763443,2025-10-25 14:14:41+00:00,130.48,154.3,13.88,781.7,13.4,83.6,26.21,26.21,26.21,45,1011,1.62,293,1,3180.0,28.0,,0.0
Burhanpur,21.307373,76.230415,2025-10-25 14:14:55+00:00,7.29,8.24,4.15,257.92,0.97,43.61,24.89,24.89,24.89,82,1010,2.93,41,97,13485.0,5.0,,0.0
Virudhunagar,9.587209,77.951431,2025-10-25 14:16:11+00:00,4.95,10.0,5.42,152.38,1.82,25.51,27.6,27.6,27.6,76,1009,0.42,121,97,12957.0,143.0,,29.0
Bhilwara,25.346251,74.636383,2025-10-25 14:16:29+00:00,61.97,69.59,3.83,310.21,6.21,130.78,24.63,24.63,24.63,27,1011,2.8,52,1,16516.0,22.0,,23.0
Madurai,9.939093,78.121719,2025-10-25 14:17:15+00:00,5.3,8.49,7.95,176.28,2.08,24.93,29.01,29.01,29.01,79,1009,2.57,110,40,15088.0,40.0,0.0,61.0
Bhagalpur,25.253391,86.989059,2025-10-25 14:17:23+00:00,175.8,194.02,17.43,739.18,20.12,86.94,27.07,27.07,27.07,54,1010,1.22,192,79,22419.0,10.0,1.0,17.0
Tambaram,12.922915,80.127457,2025-10-25 14:17:47+00:00,33.07,37.76,19.56,492.14,4.42,28.54,25.38,25.0,27.65,96,1009,1.54,0,75,7674.0,4.0,,8.0
Sirhind,30.64382,76.394119,2025-10-25 14:17:55+00:00,56.16,76.61,21.22,543.89,5.84,74.15,24.45,24.45,24.45,46,1012,2.18,5,0,,,,
Ajitgarh,30.7076,76.715126,2025-10-25 14:17:57+00:00,52.63,70.49,20.73,513.25,5.41,73.64,22.88,22.88,22.88,53,1012,1.82,9,0,,,,
Purulia,23.342257,86.362839,2025-10-25 14:17:58+00:00,161.82,171.57,8.76,486.28,15.63,86.19,25.5,25.5,25.5,58,1011,2.25,115,60,5965.0,11.0,,0.0
Aland,17.570721,76.569733,2025-10-25 14:18:35+00:00,5.14,7.5,15.79,291.77,1.34,26.79,25.41,25.41,25.41,68,1009,3.36,124,100,5.0,0.0,,1.0
Kopargaon,19.883301,74.483299,2025-10-25 14:18:41+00:00,9.6,14.23,14.18,403.2,4.02,22.01,25.49,25.49,25.49,72,1009,3.39,125,94,1030.0,4.0,,3.0
Gwalior,26.218287,78.182831,2025-10-25 14:18:47+00:00,54.32,56.27,2.04,316.45,2.32,124.75,26.19,26.19,26.19,43,1011,2.71,24,0,32843.0,15.0,,0.0
Tenali,16.236719,80.647476,2025-10-25 14:19:11+00:00,5.19,7.26,3.0,258.99,0.86,43.43,26.6,26.6,26.6,90,1010,3.04,106,100,3893.0,2.0,,74.0
Manwath,19.299999,76.5,2025-10-25 14:19:16+00:00,5.5,6.51,4.93,230.95,0.93,40.1,23.95,23.95,23.95,83,1010,3.28,100,29,571.0,2.0,0.0,0.0
Satara,17.691401,74.000938,2025-10-25 14:19:21+00:00,1.2,1.93,1.23,140.15,0.32,58.06,21.74,21.74,21.74,89,1010,1.08,191,100,23041.0,92.0,,95.0
Kishangarh,26.588528,74.872513,2025-10-25 14:24:27+00:00,47.2,62.73,4.5,257.66,4.68,126.43,25.83,25.83,25.83,26,1011,2.68,37,0,9.0,,,
Kosumb,17.11458,73.591805,2025-10-25 14:24:31+00:00,1.88,4.52,0.31,128.61,0.2,58.62,24.23,24.23,24.23,95,1009,1.5,167,100,,,,
Partur,19.595484,76.211067,2025-10-25 14:24:32+00:00,5.0,6.25,4.21,231.84,0.66,36.25,24.16,24.16,24.16,81,1009,3.3,112,52,511.0,1.0,,0.0
Modinagar,28.838299,77.581055,2025-10-25 14:24:37+00:00,82.14,113.19,37.73,730.05,10.21,101.72,25.21,25.21,25.21,30,1012,2.14,31,0,8187.0,22.0,,2.0
Mandi Gobindgarh,30.682802,76.294212,2025-10-25 14:24:57+00:00,56.16,76.61,21.22,543.89,5.84,74.15,24.54,24.54,24.54,44,1012,2.27,14,0,,,,
Chimur,20.501314,79.380173,2025-10-25 14:24:59+00:00,14.98,17.34,10.19,304.75,6.14,18.44,24.37,24.37,24.37,85,1011,2.66,62,69,441.0,1.0,,34.0
Indapur,18.11714,75.023918,2025-10-25 14:25:09+00:00,2.62,4.76,7.26,232.12,1.34,33.34,25.33,25.33,25.33,73,1009,2.34,239,99,3562.0,12.0,,21.0
Katraj,18.445089,73.86898,2025-10-25 14:25:15+00:00,1.33,1.8,1.66,158.02,0.45,57.6,22.7,22.7,22.7,87,1010,0.78,251,100,,,,
Dhayari,18.441833,73.812157,2025-10-25 14:25:17+00:00,1.33,1.8,1.66,158.02,0.45,57.6,23.03,23.03,23.03,87,1010,1.04,260,100,,,,
Saswad,18.344749,74.031715,2025-10-25 14:25:19+00:00,1.33,2.08,1.79,161.14,0.39,51.34,21.6,21.6,21.6,88,1010,1.12,152,100,,,,
Dwarka,28.59214,77.046051,2025-10-25 14:25:20+00:00,69.72,94.8,21.04,495.72,6.33,102.41,24.1,24.1,24.1,57,1011,1.54,320,0,4989.0,4.0,,0.0
Beed,18.992012,75.776138,2025-10-25 14:25:30+00:00,2.3,3.47,5.08,235.47,0.72,35.25,24.64,24.64,24.64,77,1010,2.94,167,85,12981.0,22.0,0.0,62.0
Parli Vaijnath,18.871204,76.535568,2025-10-25 14:26:28+00:00,6.42,7.41,6.6,236.72,1.24,39.6,24.84,24.84,24.84,77,1010,2.46,167,86,,,,
Villupuram,11.94596,79.497414,2025-10-25 14:26:30+00:00,18.1,24.78,24.45,391.35,8.28,21.81,23.81,23.81,23.81,87,1009,1.34,10,97,,,,
Sivakasi,9.453126,77.807236,2025-10-25 14:26:32+00:00,4.95,10.0,5.42,152.38,1.82,25.51,27.84,27.84,27.84,74,1009,1.43,230,98,3160.0,45.0,,0.0
Jammu,32.732998,74.864273,2025-10-25 14:26:37+00:00,100.05,155.88,38.97,1204.29,8.0,70.11,22.49,22.49,22.49,41,1012,0.97,3,0,97129.0,62.0,2.0,538.0
