city,lat,lon,timestamp,pm2_5,pm10,no2,co,so2,o3,temp_day,temp_min,temp_max,humidity,pressure,wind_speed,wind_deg,clouds,city_code,road_density,industrial_density,dump_density,farmland_density,pollution_source
Nanjangud,12.12,76.68,2025-10-01 09:18:49+00:00,0.0379245113052878,0.0577458843393837,0.0987460815047022,0.1091365568142289,0.0426004441752473,0.0882232811436351,0.3129890453834114,0.3129890453834114,0.3129890453834114,0.5538461538461539,0.9000000000000057,0.7502944640753829,0.7668539325842696,1.0,146,0.0245732232726001,0.0160771704180064,0.0,0.002127659574468,Other
Chittorgarh,24.879999,74.629997,2025-10-01 09:18:52+00:00,0.0422484460859382,0.0457577036724356,0.0482758620689655,0.0826388783859405,0.0129214617403593,0.1711368277739959,0.3841940532081376,0.3841940532081376,0.3841940532081376,0.5538461538461539,0.4000000000000057,0.3604240282685512,0.5926966292134831,0.7000000000000001,44,0.1119422555790052,0.0562700964630225,0.0,0.0388297872340425,Other
Ratnagiri,16.994444,73.300003,2025-10-01 09:18:59+00:00,0.0266642644806774,0.0581680033769523,0.0,0.0033273340492143,0.001817080557238,0.0691626957113683,0.2151799687010955,0.2151799687010955,0.2151799687010955,0.9076923076923078,0.5999999999999943,0.7538280329799766,0.6292134831460674,0.72,174,0.0363962186395594,0.0498392282958199,0.0,0.0414893617021276,Other
Goregaon,19.155001,72.849998,2025-10-01 09:19:03+00:00,0.0311683632105215,0.0607007176023638,0.0012539184952978,0.0,0.0012113870381586,0.0243703199455412,0.1126760563380282,0.1126760563380282,0.1126760563380282,0.8769230769230769,0.4000000000000057,0.9140164899882216,0.5702247191011236,0.77,72,0.000199807685103,0.0160771704180064,0.0,0.002127659574468,Other
Pindwara,24.7945,73.055,2025-10-01 09:19:06+00:00,0.1167462390775605,0.1293372731110173,0.2658307210031348,0.1559914699254375,0.2319806178073894,0.1964601769911504,0.3575899843505479,0.3575899843505479,0.3575899843505479,0.6461538461538461,0.4000000000000057,0.5677267373380448,0.497191011235955,0.87,159,0.0,0.0160771704180064,0.0,0.002127659574468,Other
Raipur,21.25,81.629997,2025-10-01 09:19:11+00:00,0.080893613188001,0.0769100886449978,0.1018808777429467,0.1511063385713638,0.0704623460528972,0.1541184479237576,0.4530516431924882,0.4530516431924882,0.4530516431924882,0.8,0.2999999999999971,0.1342756183745583,0.1685393258426966,0.93,167,0.1359316657716947,0.0980707395498392,0.0,0.0691489361702127,Other
Gokak,16.1667,74.833298,2025-10-01 09:19:35+00:00,0.010719754977029,0.0192486281131279,0.0272727272727272,0.0181793433052526,0.0024227740763173,0.0349897889720898,0.2652582159624412,0.2652582159624412,0.2652582159624412,0.7846153846153847,0.7999999999999972,0.9846878680800945,0.7078651685393258,0.7000000000000001,69,0.0245732232726001,0.0160771704180064,0.0,0.002127659574468,Other
Lucknow,26.85,80.949997,2025-10-01 09:19:37+00:00,0.1453022250247725,0.1488391726466863,0.0435736677115987,0.3326577836930383,0.01231576822128,0.3594962559564329,0.5821596244131457,0.5821596244131457,0.5821596244131457,0.4615384615384615,0.2000000000000028,0.1719670200235571,0.946629213483146,1.0,124,0.3488392422293542,0.1012861736334405,0.0,0.0127659574468085,Other
Delhi,28.679079,77.06971,2025-10-01 09:20:17+00:00,0.2016935411224213,0.2337695230054875,0.0633228840125391,0.4341414721940743,0.0224106602059357,0.4690946221919673,0.116588419405321,0.116588419405321,0.116588419405321,0.3538461538461539,0.4000000000000057,0.1519434628975265,0.4831460674157303,0.4,49,1.0,0.3681672025723472,1.0,0.6031914893617021,Other
Mumbai,19.07609,72.877426,2025-10-01 09:19:54+00:00,0.0311683632105215,0.0607007176023638,0.0012539184952978,0.0,0.0012113870381586,0.0243703199455412,0.116588419405321,0.116588419405321,0.116588419405321,0.8153846153846154,0.5,0.9034157832744406,0.5730337078651685,0.6900000000000001,140,0.2459507723815827,0.6832797427652733,0.1739130434782608,0.0292553191489361,Other
Sagar,14.16704,75.040298,2025-10-01 09:21:48+00:00,0.01387262408792,0.0233009708737864,0.0018808777429467,0.0075923713304798,0.0006056935190793,0.1066712049012933,0.1205007824726134,0.1205007824726134,0.1205007824726134,0.7538461538461538,0.7999999999999972,0.6548881036513546,0.7275280898876404,0.88,177,0.1368745082857749,0.0160771704180064,0.0,0.0031914893617021,Other
Jalpaiguri,26.540457,88.719391,2025-10-01 09:22:30+00:00,0.1623277182235834,0.1670747150696496,0.1087774294670846,0.4077042907484989,0.0353321219462951,0.2414567733151804,0.6893583724569641,0.6893583724569641,0.6893583724569641,0.476923076923077,0.0999999999999943,0.3121319199057716,0.4915730337078651,0.77,93,0.2556664210697204,0.1768488745980707,0.0,0.0962765957446808,Other
Pakur,24.633568,87.849251,2025-10-01 09:23:02+00:00,1.0,0.9841283241874208,1.0,0.9521166381826708,1.0,0.2138189244383934,0.7284820031298904,0.7284820031298904,0.7284820031298904,0.476923076923077,0.0999999999999943,0.2391048292108363,0.3904494382022471,0.94,151,0.0046580166589657,0.0160771704180064,0.0,0.0,Other
Sardarshahar,28.440554,74.493011,2025-10-01 09:23:11+00:00,0.1309791910638681,0.2266779231743351,0.0692789968652037,0.2047217895007486,0.0119119725418938,0.3411164057181756,0.8787167449139284,0.8787167449139284,0.8787167449139284,0.123076923076923,0.2000000000000028,0.5406360424028269,0.199438202247191,0.0,187,0.007336688437379,0.0032154340836012,0.0,0.000531914893617,Other
Sirohi,24.882618,72.858894,2025-10-01 09:23:19+00:00,0.1215205837311953,0.1327986492190798,0.1460815047021943,0.1185135891347419,0.1494044013729052,0.2901293396868618,0.4358372456964006,0.4358372456964006,0.4358372456964006,0.5692307692307692,0.2999999999999971,0.3663133097762073,0.4859550561797752,0.79,198,0.0234961349700912,0.040192926045016,0.0,0.0122340425531914,Industrial
Jaysingpur,16.779877,74.556374,2025-10-01 09:23:51+00:00,0.014593279884695,0.0233009708737864,0.0203761755485893,0.0210680742297978,0.0119119725418938,0.0841388699795779,0.2214397496087639,0.2214397496087639,0.2214397496087639,0.6307692307692307,0.5999999999999943,0.9611307420494702,0.7106741573033708,0.7000000000000001,96,0.0245732232726001,0.0160771704180064,0.0,0.002127659574468,Other
Ramanagara,12.715035,77.281296,2025-10-01 09:23:54+00:00,0.0595441852085397,0.0894048121570282,0.2047021943573667,0.198248612350459,0.0446194225721784,0.0443158611300203,0.2785602503912365,0.2785602503912365,0.2785602503912365,0.6000000000000001,0.7000000000000028,0.5241460541813899,0.7837078651685393,1.0,170,0.1001223822071256,0.0723472668810289,0.0,0.0909574468085106,Vehicular
Chikkaballapura,13.432515,77.727478,2025-10-01 09:24:49+00:00,0.0003603278983875,0.0009286618826509,0.0510971786833855,0.0347555165686111,0.0090854027861901,0.1008849557522124,0.1658841940532081,0.1658841940532081,0.1658841940532081,0.5384615384615385,0.9000000000000057,0.6030624263839812,0.7893258426966292,0.99,42,0.0589869750365273,0.0385852090032154,0.0,0.0074468085106382,Other
Channapatna,12.651805,77.208946,2025-10-01 09:25:25+00:00,0.0595441852085397,0.0894048121570282,0.2047021943573667,0.198248612350459,0.0446194225721784,0.0443158611300203,0.2934272300469482,0.2934272300469482,0.2934272300469482,0.6000000000000001,0.7000000000000028,0.4935217903415784,0.7696629213483146,1.0,39,0.0245732232726001,0.0160771704180064,0.0,0.002127659574468,Other
Surendranagar,22.728392,71.637077,2025-10-01 09:25:28+00:00,0.0234213133951896,0.0254115660616293,0.0272727272727272,0.0225502503062659,0.0167575206945285,0.1273655547991831,0.4413145539906102,0.4413145539906102,0.4413145539906102,0.6307692307692307,0.2000000000000028,0.8527679623085984,0.4859550561797752,0.98,206,0.1113053685827391,0.1028938906752411,0.0,0.002127659574468,Other
Thiruvalla,9.383452,76.574059,2025-10-01 09:29:26+00:00,0.0073867219169444,0.037821865766146,0.0059561128526645,0.0093467838291565,0.0044417524732485,0.1466984343090537,0.4671361502347422,0.4671361502347422,0.4671361502347422,0.5384615384615385,0.7999999999999972,0.4369846878680801,0.8174157303370786,1.0,212,0.0265993980793486,0.0080385852090032,0.0,0.0659574468085106,Other
Ranebennur,14.623801,75.621788,2025-10-01 09:29:28+00:00,0.0155841816052607,0.0213592233009708,0.093103448275862,0.0714469365840378,0.0100948919846557,0.0062627637848876,0.2386541471048515,0.2386541471048515,0.2386541471048515,0.6307692307692307,0.7000000000000028,0.9293286219081272,0.7303370786516854,0.97,172,0.0245732232726001,0.0160771704180064,0.0,0.002127659574468,Other
Karaikal,10.92544,79.838005,2025-10-01 09:29:28+00:00,0.086298531663814,0.1055297593921485,0.0586206896551724,0.0822153995069495,0.0310922673127397,0.3179033356024506,0.7605633802816907,0.7605633802816907,0.7605633802816907,0.323076923076923,0.4000000000000057,0.0789163722025913,0.7387640449438202,0.72,105,0.0025725239457022,0.0016077170418006,0.0,0.000531914893617,Other
Belgaum,15.852792,74.498703,2025-10-01 09:29:29+00:00,0.0151337717322763,0.0352891515407344,0.0084639498432601,0.0093165353378,0.0022208762366242,0.0949625595643294,0.0312989045383413,0.0312989045383413,0.0312989045383413,0.9384615384615383,1.0,0.7538280329799766,0.699438202247191,0.39,24,0.0245732232726001,0.0160771704180064,0.0,0.002127659574468,Other
Chatrapur,19.354979,84.986732,2025-10-01 09:29:29+00:00,0.1651202594360868,0.1685943436048965,0.0394984326018808,0.200759237133048,0.014132848778518,0.2514635806671205,0.4640062597809076,0.4640062597809076,0.4640062597809076,0.6923076923076923,0.0999999999999943,0.6760895170789164,0.1769662921348314,1.0,40,0.0245732232726001,0.0160771704180064,0.0,0.002127659574468,Other
Suri,23.905445,87.52462,2025-10-01 09:29:30+00:00,0.9258625349067652,0.9167581257914732,0.2764890282131662,0.6973335954869251,0.4124772864930344,0.5361470388019061,0.6666666666666667,0.6666666666666667,0.6666666666666667,0.5692307692307692,0.2000000000000028,0.0588928150765606,0.2219101123595505,0.8200000000000001,207,0.0003121995079735,0.0160771704180064,0.0,0.002127659574468,Other
Bhubaneswar,20.296059,85.824539,2025-10-01 09:26:42+00:00,0.2129537879470318,0.2072604474461798,0.0934169278996865,0.1704956215308761,0.0706642438925903,0.2452008168822328,0.5978090766823165,0.5978090766823165,0.5978090766823165,0.5692307692307692,0.0999999999999943,0.5583038869257951,0.2162921348314606,0.97,28,0.0885647564219438,0.0112540192926045,0.0144927536231884,0.000531914893617,Other
Mahuva,21.105001,71.771645,2025-10-01 09:26:53+00:00,0.0315286911089091,0.0686365555086534,0.0003134796238244,0.0095887717600084,0.0014132848778518,0.1021783526208304,0.3231611893583725,0.3231611893583725,0.3231611893583725,0.7384615384615385,0.2999999999999971,0.8162544169611309,0.5561797752808989,0.9,128,0.005244951733956,0.0064308681672025,0.0,0.0,Other
Jagadhri,30.172716,77.299492,2025-10-01 09:26:58+00:00,0.5711197189442392,0.6705783030814689,0.0742946708463949,0.3642220844235393,0.1907934585099939,0.8589516678012252,0.5899843505477309,0.5899843505477309,0.5899843505477309,0.3692307692307692,0.2999999999999971,0.3168433451118964,0.8511235955056179,0.0,89,0.0651872572648825,0.1430868167202572,0.0,0.0,Industrial
Barh,25.477585,85.709091,2025-10-01 09:27:07+00:00,0.3082605170705342,0.3154073448712536,0.1626959247648902,0.2237329663183048,0.0856046840298808,0.2974132062627638,0.9186228482003128,0.9186228482003128,0.9186228482003128,0.2461538461538461,0.0999999999999943,0.2826855123674913,0.6516853932584269,0.14,19,0.0370206176555065,0.0080385852090032,0.0,0.0026595744680851,Agricultural
Bhusawal,21.045521,75.801094,2025-10-01 09:27:20+00:00,0.0123412305197729,0.016209371042634,0.0545454545454545,0.0476564981321556,0.0133252574197456,0.0805990469707284,0.5446009389671362,0.5446009389671362,0.5446009389671362,0.4307692307692308,0.4000000000000057,0.2803297997644288,0.7865168539325842,0.29,29,0.0351037126765488,0.0144694533762057,0.0,0.0,Other
Alipurduar,26.49189,89.5271,2025-10-01 09:29:42+00:00,0.1178272227727231,0.1185310257492612,0.1181818181818181,0.4306931441794341,0.0082778114274177,0.1668481960517358,0.5289514866979659,0.5289514866979659,0.5289514866979659,0.676923076923077,0.2000000000000028,0.3474676089517079,0.3707865168539325,0.81,0,0.0178203479151316,0.107717041800643,0.0,0.1191489361702127,Other
Kollam,8.893212,76.614143,2025-10-01 09:29:58+00:00,0.0078371317899288,0.0371464753060363,0.0087774294670846,0.0089989261785568,0.0058550373511003,0.1592239618788291,0.2550860719874805,0.2550860719874805,0.2550860719874805,0.7692307692307692,0.7999999999999972,0.6219081272084807,0.8539325842696629,1.0,114,0.2653071418759444,0.1511254019292604,0.0144927536231884,0.4377659574468085,Other
Medinipur,22.430889,87.321487,2025-10-01 09:31:56+00:00,0.1786325556256192,0.1810890671169269,0.067398119122257,0.2040865711822623,0.0492630728851201,0.1454731109598366,0.3513302034428796,0.3513302034428796,0.3513302034428796,0.8461538461538463,0.2000000000000028,0.519434628975265,0.4325842696629213,0.66,137,0.0496646977284363,0.1141479099678456,0.0,0.0340425531914893,Other
Patan,23.849325,72.126625,2025-10-01 09:32:04+00:00,0.0208990181064768,0.0273533136344449,0.0369905956112852,0.0401094995387105,0.0092873006258833,0.1583390061266167,0.6079812206572772,0.6079812206572772,0.6079812206572772,0.4,0.2000000000000028,0.595995288574794,0.4915730337078651,1.0,157,0.0524869812805175,0.022508038585209,0.0,0.0095744680851063,Other
Mettur,11.786253,77.800781,2025-10-01 09:32:28+00:00,0.0306278713629402,0.0433094132545377,0.1855799373040752,0.1406101120706605,0.035130224106602,0.1019060585432266,0.4710485133020345,0.4710485133020345,0.4710485133020345,0.5384615384615385,0.5999999999999943,0.0,0.8707865168539325,1.0,138,0.0329932440026474,0.0209003215434083,0.0,0.0,Vehicular
Huliyar,13.583274,76.540154,2025-10-01 09:32:38+00:00,0.016124673452842,0.022203461376108,0.0981191222570532,0.0707512212828385,0.0096910963052695,0.0339686861810755,0.2104851330203445,0.2104851330203445,0.2104851330203445,0.5230769230769231,0.7000000000000028,0.6113074204946998,0.7921348314606741,0.93,87,0.0245732232726001,0.0160771704180064,0.0,0.002127659574468,Other
Harihar,14.530457,75.801094,2025-10-01 09:32:40+00:00,0.014593279884695,0.0201772899957788,0.1056426332288401,0.0691934239779791,0.0143347466182111,0.005786249149081,0.2222222222222221,0.2222222222222221,0.2222222222222221,0.6461538461538461,0.7000000000000028,0.8586572438162545,0.7331460674157303,1.0,79,0.0245732232726001,0.0160771704180064,0.0,0.002127659574468,Other
Rasayani,18.901457,73.176132,2025-10-01 09:32:45+00:00,0.033150166651653,0.0612072604474461,0.0012539184952978,0.000983075969086,0.0012113870381586,0.0325391422736555,0.3082942097026604,0.3082942097026604,0.3082942097026604,0.8461538461538463,0.5,0.7479387514723205,0.5814606741573033,0.6900000000000001,173,0.0245732232726001,0.0160771704180064,0.0,0.002127659574468,Other
Haringhata,22.96051,88.567406,2025-10-01 09:32:49+00:00,0.1947572290784613,0.2261713803292528,0.1880877742946708,0.3225094148429347,0.1354734504340803,0.1602450646698434,0.480438184663537,0.480438184663537,0.480438184663537,0.7384615384615385,0.2000000000000028,0.5206124852767963,0.3651685393258427,0.99,80,0.0124442723878267,0.040192926045016,0.0,0.0063829787234042,Industrial
Kushtagi,15.756595,76.192696,2025-10-01 09:32:58+00:00,0.0066660661201693,0.0082735331363444,0.031974921630094,0.0264069329542189,0.0,0.0746766507828454,0.161189358372457,0.161189358372457,0.161189358372457,0.6307692307692307,0.5999999999999943,0.684334511189635,0.7528089887640449,1.0,121,0.0245732232726001,0.0160771704180064,0.0,0.002127659574468,Other
Jadugora,22.656015,86.352882,2025-10-01 09:33:01+00:00,0.3417710116205747,0.3306880540312368,0.0686520376175548,0.258790967800481,0.0954976781748435,0.324642614023145,0.5446009389671362,0.5446009389671362,0.5446009389671362,0.6461538461538461,0.2000000000000028,0.1872791519434629,0.2837078651685393,0.8200000000000001,88,0.0245732232726001,0.0160771704180064,0.0,0.002127659574468,Other
Orai,25.989836,79.450035,2025-10-01 09:33:04+00:00,0.1272858301053959,0.1258758970029548,0.0630094043887147,0.1212359533568263,0.0811629315566323,0.3893124574540503,0.6431924882629112,0.6431924882629112,0.6431924882629112,0.4461538461538461,0.2000000000000028,0.0918727915194346,0.2415730337078651,0.31,150,0.045462492351112,0.0016077170418006,0.0144927536231884,0.0,Other
Surajpur,23.223047,82.87056,2025-10-01 09:33:11+00:00,0.7006575984145572,0.7268889826931194,0.3510971786833855,0.4890424840061102,0.4649707248132445,0.2575221238938053,0.5391236306729266,0.5391236306729266,0.5391236306729266,0.4307692307692308,0.2000000000000028,0.2237926972909305,0.0533707865168539,0.47,204,0.0096594527767024,0.0032154340836012,0.0144927536231884,0.0058510638297872,Agricultural
Ambernath,19.186354,73.191948,2025-10-01 09:33:34+00:00,0.032339428880281,0.0597720557197129,0.0015673981191222,0.0003781061419561,0.0012113870381586,0.0281143635125935,0.3169014084507042,0.3169014084507042,0.3169014084507042,0.8307692307692309,0.4000000000000057,0.7102473498233216,0.5814606741573033,0.66,2,0.0096594527767024,0.0257234726688102,0.0,0.0,Other
Malerkotla,30.525005,75.890121,2025-10-01 09:33:41+00:00,0.5331952076389515,0.6629801604052341,0.0909090909090909,0.3387982274384065,0.2069452856854431,0.7833900612661673,0.7308294209702664,0.7308294209702664,0.7308294209702664,0.2153846153846154,0.2000000000000028,0.2579505300353357,0.9606741573033708,0.0,129,0.0556526842913695,0.022508038585209,0.0,0.0,Industrial
Jorapokhar,22.422455,85.760651,2025-10-01 09:33:53+00:00,0.28294748220881,0.2815533980582524,0.1507836990595611,0.2148247856138175,0.211992731677771,0.2560925799863852,0.4992175273865415,0.4992175273865415,0.4992175273865415,0.6615384615384616,0.2000000000000028,0.3027090694935218,0.1657303370786517,0.43,100,0.0113640620902381,0.0096463022508038,0.0,0.0,Other
Vizianagaram,18.106659,83.395554,2025-10-01 09:33:59+00:00,0.0908026303936582,0.0983537357534824,0.1260188087774294,0.1788593293909466,0.0843932969917221,0.1567052416609938,0.29264475743349,0.29264475743349,0.29264475743349,0.8615384615384616,0.0999999999999943,0.0965842167255595,0.8820224719101123,1.0,218,0.020367895900196,0.0064308681672025,0.0289855072463768,0.000531914893617,Other
Durg,21.190449,81.28492,2025-10-01 09:34:06+00:00,0.1070173858210972,0.1021528070915998,0.0557993730407523,0.1354829927857348,0.0304865737936604,0.1758339006126616,0.4538341158059469,0.4538341158059469,0.4538341158059469,0.6923076923076923,0.2000000000000028,0.1095406360424028,0.2219101123595505,0.55,57,0.1922337250396493,0.0385852090032154,0.0,0.0069148936170212,Other
Himmatnagar,23.597969,72.969818,2025-10-01 09:34:22+00:00,0.0428790199081163,0.0525116082735331,0.1501567398119122,0.0781167289281447,0.0942862911366848,0.1043567052416609,0.3779342723004697,0.3779342723004697,0.3779342723004697,0.676923076923077,0.2999999999999971,0.5830388692579506,0.4719101123595505,0.88,83,0.0245732232726001,0.0160771704180064,0.0,0.002127659574468,Other
Sambhal,28.590361,78.571762,2025-10-01 09:37:32+00:00,0.1400774704981533,0.157956943858168,0.1241379310344827,0.4634371360728384,0.0442156268927922,0.4119128658951668,0.4960876369327074,0.4960876369327074,0.4960876369327074,0.4153846153846154,0.2000000000000028,0.1837455830388693,0.6207865168539326,0.6900000000000001,183,0.0646690060816464,0.0369774919614147,0.0,0.000531914893617,Other
Harnaut,25.369179,85.53006,2025-10-01 09:37:52+00:00,0.3532114223943789,0.3550021105951878,0.2608150470219436,0.2097279148202483,0.1009489198465576,0.2206262763784887,0.8669796557120504,0.8669796557120504,0.8669796557120504,0.2769230769230769,0.0999999999999943,0.1861012956419317,0.6039325842696629,0.21,81,0.0011488941893427,0.0016077170418006,0.0,0.000531914893617,Other
Port Blair,11.623377,92.726486,2025-10-01 09:37:59+00:00,0.0341410683722187,0.1105951878429717,0.0040752351097178,0.0058530830774815,0.0020189783969311,0.0083730428863172,0.2840375586854458,0.2840375586854458,0.2840375586854458,0.8615384615384616,0.7000000000000028,0.8822143698468788,0.5842696629213483,0.96,162,0.0245732232726001,0.0160771704180064,0.0,0.002127659574468,Other
Suti,24.618393,88.024338,2025-10-01 09:38:02+00:00,0.9237906494910368,0.9156606162937948,0.8611285266457679,0.9279783420801888,0.6593983444377145,0.0750170183798502,0.6197183098591548,0.6197183098591548,0.6197183098591548,0.5384615384615385,0.2000000000000028,0.3557126030624264,0.4353932584269662,0.91,209,0.0003059555178141,0.0160771704180064,0.0,0.002127659574468,Other
Banswara,23.546757,74.43383,2025-10-01 09:38:07+00:00,0.0339609044230249,0.0368932038834951,0.073667711598746,0.0767101740800677,0.0187764990914597,0.0807351940095302,0.4100156494522695,0.4100156494522695,0.4100156494522695,0.6000000000000001,0.2999999999999971,0.1354534746760895,0.696629213483146,0.91,15,0.0238083344780648,0.0064308681672025,0.0,0.0,Other
Manikchak,25.077787,87.900375,2025-10-01 09:38:31+00:00,0.892081794432934,0.8763191219924017,0.4344827586206896,0.6989065170374629,0.3563496870583484,0.2729748127978216,0.6721439749608764,0.6721439749608764,0.6721439749608764,0.5230769230769231,0.0999999999999943,0.0518256772673733,0.0730337078651685,1.0,132,0.0079548434631667,0.0160771704180064,0.0,0.002127659574468,Other
Roorkee,29.854263,77.888,2025-10-01 09:38:39+00:00,0.8224484280695432,0.9382861967074714,0.4094043887147335,0.6389388829232143,0.6256814052089642,1.0,0.5743348982785605,0.5743348982785605,0.5743348982785605,0.4153846153846154,0.2000000000000028,0.2756183745583039,0.8174157303370786,0.0,175,0.0427775765825393,0.1173633440514469,0.0434782608695652,0.001595744680851,Industrial
Kavali,14.913181,79.992981,2025-10-01 09:38:54+00:00,0.0287361498964057,0.0358801181933305,0.0786833855799373,0.0374627565450173,0.0922673127397536,0.128863172226004,0.5070422535211268,0.5070422535211268,0.5070422535211268,0.4153846153846154,0.2999999999999971,0.4051825677267374,0.8174157303370786,1.0,107,0.0099341883437191,0.0016077170418006,0.0,0.000531914893617,Other
Dharmavaram,14.413745,77.712616,2025-10-01 09:39:00+00:00,0.0016214755427438,0.0021950189953566,0.0564263322884012,0.0367519169981397,0.007066424389259,0.0838665759019741,0.4272300469483572,0.4272300469483572,0.4272300469483572,0.3846153846153846,0.5,1.0,0.7752808988764045,1.0,53,0.0152415799792699,0.0032154340836012,0.0,0.0,Other
Siddipet,18.101904,78.852074,2025-10-01 09:39:10+00:00,0.0344113142960093,0.0401013085690164,0.0498432601880877,0.0628109923017589,0.0258429234807187,0.1901974132062627,0.3129890453834114,0.3129890453834114,0.3129890453834114,0.6153846153846154,0.4000000000000057,0.6784452296819788,0.8314606741573033,0.76,193,0.0826516977409243,0.017684887459807,0.0,0.0063829787234042,Other
Dhanpuri,23.173939,81.565125,2025-10-01 09:39:37+00:00,0.0723358256012971,0.0714225411566061,0.0448275862068965,0.1362240808239689,0.0092873006258833,0.1249829816201497,0.4733959311424101,0.4733959311424101,0.4733959311424101,0.5692307692307692,0.2000000000000028,0.2979976442873969,0.0337078651685393,0.85,51,0.0007055708880202,0.0160771704180064,0.0,0.002127659574468,Other
Chirala,15.812074,80.355377,2025-10-01 09:39:47+00:00,0.0535086929105486,0.0607851414098775,0.0586206896551724,0.0472481434988429,0.0633959216636382,0.2257998638529612,0.4139280125195619,0.4139280125195619,0.4139280125195619,0.6461538461538461,0.2000000000000028,0.2661955241460542,0.6797752808988764,1.0,43,0.0073679083881763,0.0064308681672025,0.0,0.0037234042553191,Other
Markapur,15.764501,79.259491,2025-10-01 09:39:56+00:00,0.0217097558778488,0.0255804136766568,0.1163009404388714,0.0453273642977056,0.1007470220068645,0.1083049693669163,0.5375586854460097,0.5375586854460097,0.5375586854460097,0.4,0.4000000000000057,0.6772673733804476,0.8174157303370786,1.0,134,0.0104836594777526,0.0016077170418006,0.0,0.0,Other
Chalakudy,10.311879,76.331978,2025-10-01 09:40:03+00:00,0.0081073777137194,0.0395947657239341,0.0047021943573667,0.0097551384624691,0.0024227740763173,0.1176310415248468,0.4021909233176839,0.4021909233176839,0.4021909233176839,0.6153846153846154,0.7999999999999972,0.3074204946996467,0.7668539325842696,1.0,37,0.0245732232726001,0.0160771704180064,0.0,0.002127659574468,Other
Gondal,21.961946,70.792297,2025-10-01 09:40:05+00:00,0.0310782812359246,0.0547066272688898,0.0056426332288401,0.018693567658313,0.001817080557238,0.1754935330156569,0.3231611893583725,0.3231611893583725,0.3231611893583725,0.7230769230769232,0.0999999999999943,0.7267373380447586,0.5196629213483146,0.99,71,0.0245732232726001,0.0160771704180064,0.0,0.002127659574468,Other
Bhimavaram,16.544893,81.52124,2025-10-01 09:40:08+00:00,0.1143140257634447,0.1171802448290417,0.0605015673981191,0.0875240097400142,0.0464365031294165,0.2942818243703199,0.1064162754303599,0.1064162754303599,0.1064162754303599,1.0,0.2000000000000028,0.4676089517078916,0.8651685393258427,1.0,27,0.0199807685103088,0.0096463022508038,0.0,0.000531914893617,Other
Jalgaon Jamod,21.04954,76.532028,2025-10-01 09:40:16+00:00,0.0195477884875236,0.0227100042211903,0.0351097178683385,0.0506964715134832,0.0100948919846557,0.1113002042205582,0.3622848200312989,0.3622848200312989,0.3622848200312989,0.6461538461538461,0.4000000000000057,0.2767962308598352,0.8426966292134831,0.96,92,0.0017295852741736,0.0016077170418006,0.0,0.0,Other
Paltan Bazaar,26.182245,91.754723,2025-10-01 09:38:00+00:00,0.0314386091343122,0.0357956943858167,0.215987460815047,0.2979476398614619,0.0185746012517666,0.1145677331518039,0.360719874804382,0.360719874804382,0.360719874804382,0.8307692307692309,0.4000000000000057,0.3769140164899882,0.1573033707865168,1.0,155,0.0245732232726001,0.0160771704180064,0.0,0.002127659574468,Other
Hodal,27.897551,77.384117,2025-10-01 09:40:23+00:00,0.0944059093775335,0.1149008020261713,0.0949843260188087,0.29770565193061,0.0098929941449626,0.2959155888359428,0.475743348982786,0.475743348982786,0.475743348982786,0.4,0.2000000000000028,0.2049469964664311,0.3539325842696629,0.95,84,0.0012175780810969,0.0160771704180064,0.0,0.002127659574468,Other
Ausa,18.245655,76.505356,2025-10-01 09:40:28+00:00,0.0166651653004233,0.0175601519628535,0.0282131661442006,0.0303846095675978,0.0080759135877246,0.1415929203539822,0.219874804381847,0.219874804381847,0.219874804381847,0.6000000000000001,0.5,0.5571260306242639,0.6882022471910112,0.71,8,0.0075364961224821,0.0080385852090032,0.0,0.0,Other
Mahidpur,23.486839,75.659157,2025-10-01 09:40:35+00:00,0.0233312314205927,0.0255804136766568,0.0263322884012539,0.0453122400520274,0.0082778114274177,0.1653505786249148,0.3348982785602505,0.3348982785602505,0.3348982785602505,0.5692307692307692,0.4000000000000057,0.2591283863368669,0.75,0.47,127,0.0029346753749516,0.0160771704180064,0.0,0.002127659574468,Other
Gurdaspur,32.041943,75.405334,2025-10-01 09:40:46+00:00,0.6432753805963426,0.7874208526804557,0.1282131661442006,0.4631346511592735,0.1687865939834443,0.8024506466984342,0.6768388106416279,0.6768388106416279,0.6768388106416279,0.3076923076923077,0.2000000000000028,0.2108362779740872,0.9297752808988764,0.0,76,0.1499306917092298,0.022508038585209,0.0,0.001063829787234,Industrial
Domchanch,24.47438,85.688744,2025-10-01 09:41:19+00:00,0.2745698585712999,0.2802026171380329,0.1351097178683385,0.182806757512969,0.164748637189582,0.4009530292716133,0.4264475743348981,0.4264475743348981,0.4264475743348981,0.6307692307692307,0.2000000000000028,0.0341578327444051,0.3398876404494382,0.92,56,0.0010302583763127,0.0064308681672025,0.0,0.0,Other
Barjora,23.427221,87.287018,2025-10-01 09:41:25+00:00,0.6797585803080802,0.669649641198818,0.3783699059561128,0.5749633237042304,0.4181304260044417,0.4140912185159973,0.7034428794992176,0.7034428794992176,0.7034428794992176,0.4923076923076923,0.0999999999999943,0.2932862190812721,0.3370786516853932,0.72,20,0.0160095907688849,0.0016077170418006,0.0,0.0,Other
Saint Dnyaneshwar Garden and Paithan park,19.487707,75.380768,2025-10-01 09:41:34+00:00,0.0016214755427438,0.0021105951878429,0.0310344827586206,0.020841210544624,0.0084797092671108,0.0669843430905378,0.3974960876369329,0.3974960876369329,0.3974960876369329,0.5538461538461539,0.5,0.2979976442873969,0.6657303370786517,0.8200000000000001,180,0.0245732232726001,0.0160771704180064,0.0,0.002127659574468,Other
Sinnar,19.85306,74.000633,2025-10-01 09:41:36+00:00,0.0232411494459958,0.0310679611650485,0.1307210031347962,0.0560655787292609,0.1072077528770442,0.0,0.1408450704225352,0.1408450704225352,0.1408450704225352,0.6461538461538461,0.5,0.673733804475854,0.6938202247191011,0.87,197,0.0245732232726001,0.0160771704180064,0.0,0.002127659574468,Other
Guntakal,15.167409,77.373627,2025-10-01 09:41:38+00:00,0.0006305738221781,0.0008442380751371,0.0360501567398119,0.024637396209864,0.0048455481526347,0.0886317222600408,0.344287949921753,0.344287949921753,0.344287949921753,0.4615384615384615,0.5,0.7561837455830389,0.7921348314606741,0.96,75,0.0150417722941668,0.0048231511254019,0.0,0.0,Other
Lalgola,24.417534,88.250343,2025-10-01 09:41:45+00:00,0.6636339068552383,0.66424651751794,0.6278996865203761,0.8630045826464408,0.32404603270745,0.0235534377127297,0.6079812206572772,0.6079812206572772,0.6079812206572772,0.5846153846153846,0.2000000000000028,0.2273262661955241,0.3230337078651685,0.98,123,0.0008491826616881,0.0,0.0,0.000531914893617,Other
Hoshangabad,22.744108,77.736969,2025-10-01 09:41:50+00:00,0.0520673813169984,0.053440270156184,0.0244514106583072,0.063612577322706,0.0129214617403593,0.2409802586793736,0.2895148669796559,0.2895148669796559,0.2895148669796559,0.7846153846153847,0.4000000000000057,0.2803297997644288,0.7668539325842696,0.79,85,0.011270402237846,0.0016077170418006,0.0,0.0,Other
Proddatur,14.752805,78.552757,2025-10-01 09:41:58+00:00,0.0046842626790379,0.0067539046010975,0.061128526645768,0.0444804065397238,0.0084797092671108,0.0790333560245064,0.4835680751173707,0.4835680751173707,0.4835680751173707,0.3846153846153846,0.4000000000000057,0.751472320376914,0.8061797752808988,1.0,163,0.0115388938147033,0.0016077170418006,0.0,0.001063829787234,Other
Pali,25.771315,73.323685,2025-10-01 09:42:04+00:00,0.1484550941356634,0.1534824820599409,0.0614420062695924,0.1032683494910691,0.0575408843125378,0.4501021102791013,0.5805946791862289,0.5805946791862289,0.5805946791862289,0.4,0.2000000000000028,0.2414605418138987,0.5421348314606741,0.47,154,0.1322102476366497,0.0305466237942122,0.0,0.0345744680851063,Other
Palwal,28.148735,77.332024,2025-10-01 09:42:57+00:00,0.09017205657148,0.1102574926129168,0.1106583072100313,0.3613333534989943,0.01231576822128,0.2850918992511912,0.4538341158059469,0.4538341158059469,0.4538341158059469,0.3384615384615385,0.2000000000000028,0.1790341578327444,0.3595505617977528,0.76,156,0.1011214206326411,0.0321543408360128,0.0,0.001063829787234,Other
Gohana,29.138407,76.693245,2025-10-01 09:43:10+00:00,0.313034861724169,0.3602363866610383,0.0648902821316614,0.3661126151333202,0.0347264284272158,0.6143635125936011,0.5672926447574336,0.5672926447574336,0.5672926447574336,0.2461538461538461,0.2000000000000028,0.1849234393404005,0.1207865168539325,0.03,68,0.0163093022965395,0.0032154340836012,0.0,0.0,Other
Munger,25.37571,86.474373,2025-10-01 09:43:18+00:00,0.4726601207098459,0.4720979316167158,0.115987460815047,0.3141457069828643,0.2125984251968503,0.6087134104833218,0.8834115805946798,0.8834115805946798,0.8834115805946798,0.2769230769230769,0.0,0.4346289752650177,0.5393258426966292,0.44,141,0.0607914881926146,0.0032154340836012,0.0,0.001595744680851,Other
Yavatmal,20.388794,78.120407,2025-10-01 09:43:32+00:00,0.0333303306008467,0.0371464753060363,0.0238244514106583,0.0485034558901374,0.0086816071068039,0.1345813478556841,0.3536776212832551,0.3536776212832551,0.3536776212832551,0.6000000000000001,0.4000000000000057,0.4169611307420495,0.848314606741573,0.64,219,0.1095945152790439,0.0353697749196141,0.0,0.0180851063829787,Other
Bokaro Steel City,23.669296,86.151115,2025-10-01 09:44:33+00:00,0.3551932258355103,0.3529759392148585,0.1394984326018808,0.3007607495576158,0.1887744801130627,0.2705241660993873,0.5187793427230047,0.5187793427230047,0.5187793427230047,0.6153846153846154,0.2000000000000028,0.2791519434628975,0.3539325842696629,0.97,32,0.0245732232726001,0.0160771704180064,0.0,0.002127659574468,Other
Jetpur,21.761524,70.627625,2025-10-01 09:44:35+00:00,0.0347716421943969,0.0649219079780498,0.0031347962382445,0.0182852130250003,0.001817080557238,0.1837304288631722,0.3474178403755872,0.3474178403755872,0.3474178403755872,0.7230769230769232,0.0999999999999943,0.6984687868080096,0.5308988764044944,0.99,97,0.0054135394682617,0.0273311897106109,0.0,0.000531914893617,Other
Basirhat,22.657402,88.86718,2025-10-01 09:44:40+00:00,0.040807134492388,0.0481215702828197,0.0034482758620689,0.1151257581028146,0.0012113870381586,0.1068073519400952,0.4420970266040693,0.4420970266040693,0.4420970266040693,0.7846153846153847,0.2999999999999971,0.4228504122497056,0.4157303370786516,1.0,21,0.0245732232726001,0.0160771704180064,0.0,0.002127659574468,Other
Konnagar,22.700474,88.319069,2025-10-01 09:44:42+00:00,0.1072876317448878,0.1130434782608695,0.0278996865203761,0.1438769491371618,0.0183727034120734,0.2374404356705241,0.4765258215962442,0.4765258215962442,0.4765258215962442,0.7076923076923078,0.2000000000000028,0.6054181389870437,0.3904494382022471,1.0,115,0.0245732232726001,0.0160771704180064,0.0,0.002127659574468,Other
Ranchi,23.344315,85.296013,2025-10-01 09:44:44+00:00,0.1597153409602738,0.1566905867454622,0.0316614420062695,0.1511063385713638,0.0496668685645063,0.3750170183798502,0.2503912363067291,0.2503912363067291,0.2503912363067291,0.7230769230769232,0.2999999999999971,0.2520612485276796,0.3146067415730337,0.75,171,0.2897648513305943,0.1527331189710611,0.0,0.0053191489361702,Other
Gudur,14.146319,79.850388,2025-10-01 09:47:36+00:00,0.0448608233492478,0.0587589700295483,0.1094043887147335,0.1003644943208457,0.0224106602059357,0.185500340367597,0.5680751173708922,0.5680751173708922,0.5680751173708922,0.3076923076923077,0.4000000000000057,0.568904593639576,0.8426966292134831,1.0,73,0.000874158622326,0.0032154340836012,0.0,0.0,Other
Gola Gokarannath,28.078636,80.471588,2025-10-01 09:48:45+00:00,0.1895324745518421,0.2217813423385394,0.1786833855799373,0.5346269604803462,0.0454270139309509,0.3095983662355343,0.3403755868544602,0.3403755868544602,0.3403755868544602,0.676923076923077,0.2000000000000028,0.4204946996466432,0.7219101123595505,0.8200000000000001,70,0.0245732232726001,0.0160771704180064,0.0,0.002127659574468,Other
Shikohabad,27.108416,78.584602,2025-10-01 09:48:47+00:00,0.1003513197009278,0.1016462642465175,0.0460815047021943,0.1534354724058138,0.0181708055723803,0.3095983662355343,0.6220657276995307,0.6220657276995307,0.6220657276995307,0.4461538461538461,0.2000000000000028,0.2414605418138987,0.1769662921348314,0.49,192,0.0132747230790364,0.017684887459807,0.0144927536231884,0.0047872340425531,Other
Tirumangalam,9.823619,77.986565,2025-10-01 09:48:57+00:00,0.0162147554274389,0.0287885183621781,0.0589341692789968,0.058893812671093,0.0260448213204118,0.1722260040844111,0.8575899843505479,0.8575899843505479,0.8575899843505479,0.1384615384615384,0.4000000000000057,0.1142520612485277,0.9831460674157304,1.0,214,0.0245732232726001,0.0160771704180064,0.0,0.002127659574468,Other
Anakaputhur,12.946366,79.959244,2025-10-01 09:48:59+00:00,0.0734168092964597,0.0978471929084001,0.270846394984326,0.1640829413632995,0.1397133050676357,0.1862491490810074,0.5845070422535217,0.5845070422535217,0.5845070422535217,0.3076923076923077,0.4000000000000057,0.4628975265017669,0.8707865168539325,1.0,5,0.0245732232726001,0.0160771704180064,0.0,0.002127659574468,Other
Suryapet,17.143908,79.623924,2025-10-01 09:49:01+00:00,0.0352220520673813,0.0406922752216124,0.0633228840125391,0.0470817767963822,0.054310518877448,0.1426820966643975,0.3419405320813775,0.3419405320813775,0.3419405320813775,0.7230769230769232,0.2999999999999971,0.4840989399293287,0.9185393258426966,0.86,208,0.0581939882862744,0.0337620578778135,0.0,0.0074468085106382,Other
Udupi,13.340881,74.742142,2025-10-01 09:49:25+00:00,0.0123412305197729,0.0375685943436048,0.0015673981191222,0.008212465403288,0.001817080557238,0.1084411164057181,0.2981220657276997,0.2981220657276997,0.2981220657276997,0.7538461538461538,0.7999999999999972,0.435806831566549,0.7106741573033708,0.5700000000000001,215,0.1265032406308927,0.0321543408360128,0.0,0.1186170212765957,Other
Nandyal,15.478569,78.483093,2025-10-01 09:50:05+00:00,0.009188361408882,0.0100464330941325,0.1009404388714733,0.0353907348870975,0.0506763577629719,0.0742682096664397,0.4843505477308298,0.4843505477308298,0.4843505477308298,0.4615384615384615,0.4000000000000057,0.751472320376914,0.8089887640449438,1.0,145,0.0913932839641844,0.0369774919614147,0.0434782608695652,0.0058510638297872,Other
Begusarai,25.416676,86.129379,2025-10-01 09:52:08+00:00,0.3348346995766147,0.3414098775854791,0.1147335423197492,0.2800102844870613,0.1072077528770442,0.4045609257998638,0.8920187793427232,0.8920187793427232,0.8920187793427232,0.2769230769230769,0.0,0.4746760895170789,0.6095505617977528,0.47,22,0.1087703085779936,0.0144694533762057,0.0,0.002127659574468,Other
Contai,21.779188,87.744629,2025-10-01 09:52:33+00:00,0.0481938564093324,0.0548754748839172,0.0053291536050156,0.086223324611685,0.0004037956793862,0.1474472430224642,0.3982785602503911,0.3982785602503911,0.3982785602503911,0.8461538461538463,0.2000000000000028,0.4982332155477033,0.3595505617977528,0.99,45,0.0245732232726001,0.0160771704180064,0.0,0.002127659574468,Other
Naya Raipur,21.164993,81.775307,2025-10-01 09:52:35+00:00,0.0722457436267002,0.068467707893626,0.0626959247648902,0.1298718976391052,0.0359378154653745,0.149149081007488,0.4092331768388109,0.4092331768388109,0.4092331768388109,0.8307692307692309,0.2000000000000028,0.1001177856301531,0.1797752808988764,0.88,147,0.0245732232726001,0.0160771704180064,0.0,0.002127659574468,Other
Payradanga,23.125587,88.546867,2025-10-01 09:52:37+00:00,0.304477074137465,0.3609117771211481,0.3561128526645767,0.510473540132186,0.2580254391278013,0.1266167460857726,0.4491392801251959,0.4491392801251959,0.4491392801251959,0.7692307692307692,0.2000000000000028,0.4770318021201414,0.3623595505617977,0.99,158,0.0245732232726001,0.0160771704180064,0.0,0.002127659574468,Other
Maheshtala,22.511976,88.250992,2025-10-01 09:52:40+00:00,0.0858481217908296,0.0908400168847614,0.0191222570532915,0.1292215550749406,0.0119119725418938,0.2054458815520762,0.4843505477308298,0.4843505477308298,0.4843505477308298,0.676923076923077,0.2000000000000028,0.6301531213191992,0.4073033707865168,1.0,126,0.0239894101926895,0.0369774919614147,0.0,0.0,Other
Vaniyambadi,12.695032,78.621887,2025-10-01 09:52:59+00:00,0.3342942077290334,0.3777121148163782,0.4275862068965517,0.4006412680167577,0.1659600242277407,0.4554799183117767,0.4053208137715181,0.4053208137715181,0.4053208137715181,0.5076923076923077,0.5,0.6595995288574795,0.696629213483146,1.0,216,0.0193189055534048,0.0016077170418006,0.0,0.001595744680851,Other
Shahdol,23.302189,81.356804,2025-10-01 09:53:07+00:00,0.0799027114674353,0.0790206838328408,0.063949843260188,0.1484595955776705,0.0084797092671108,0.0829816201497617,0.4123630672926446,0.4123630672926446,0.4123630672926446,0.676923076923077,0.2000000000000028,0.2921083627797409,1.0,0.59,190,0.0436392472245463,0.0160771704180064,0.0,0.6702127659574468,Other
Aruppukkottai,9.515625,78.100014,2025-10-01 09:54:45+00:00,0.028465903972615,0.0462642465175179,0.0871473354231974,0.076362316429468,0.0399757722592368,0.1334921715452688,0.891236306729265,0.891236306729265,0.891236306729265,0.1076923076923077,0.4000000000000057,0.3733804475853947,0.1151685393258426,1.0,7,0.0090662737115526,0.0578778135048231,0.0,0.001063829787234,Other
Salipur,20.484348,86.119194,2025-10-01 09:54:52+00:00,0.1457526348977569,0.1434360489658083,0.0617554858934169,0.1409882182126167,0.0658186957399555,0.1987066031313819,0.5477308294209704,0.5477308294209704,0.5477308294209704,0.6615384615384616,0.0999999999999943,0.5806831566548882,0.25,0.89,181,0.0245732232726001,0.0160771704180064,0.0,0.002127659574468,Other
Sasaram,24.953514,84.011787,2025-10-01 09:54:57+00:00,0.358526258895595,0.366652596032081,0.8194357366771159,0.2195586745111087,0.551786795881284,0.1090537780803267,0.7676056338028168,0.7676056338028168,0.7676056338028168,0.4153846153846154,0.0999999999999943,0.2237926972909305,0.0646067415730337,0.22,188,0.0157410991920276,0.0,0.0,0.0026595744680851,Agricultural
Bihta,25.563322,84.869804,2025-10-01 09:55:04+00:00,0.3879830645887758,0.3886872097931616,0.4015673981191222,0.2248370362528169,0.0872198667474258,0.117290673927842,0.8435054773082944,0.8435054773082944,0.8435054773082944,0.3076923076923077,0.0999999999999943,0.0659599528857479,0.5898876404494382,0.33,30,0.0048890442948661,0.0048231511254019,0.0,0.0,Other
Dahod,22.835602,74.255989,2025-10-01 09:56:13+00:00,0.0594541032339428,0.0639932460953988,0.1191222570532915,0.0845445333413996,0.0710680395719765,0.1131381892443839,0.3708920187793432,0.3708920187793432,0.3708920187793432,0.5846153846153846,0.4000000000000057,0.5064782096584217,0.6207865168539326,0.5,47,0.0285350350287847,0.0080385852090032,0.0,0.0031914893617021,Other
Najibabad,29.607981,78.342674,2025-10-01 09:56:37+00:00,0.8950544995946311,0.9999999999999998,0.6307210031347961,0.9671652626325262,0.6133656369876842,0.7829816201497617,0.5594679186228484,0.5594679186228484,0.5594679186228484,0.4615384615384615,0.2000000000000028,0.2732626619552415,0.8202247191011236,0.0,144,0.0091412015934662,0.0112540192926045,0.0,0.001595744680851,Other
Bagaha,27.122196,84.072235,2025-10-01 09:56:44+00:00,0.3619493739302765,0.3831152384972562,0.2059561128526645,0.5736172658388663,0.1013527155259438,0.3155207624234172,0.7198748043818466,0.7198748043818466,0.7198748043818466,0.476923076923077,0.0999999999999943,0.3545347467608952,0.7724719101123595,0.42,10,0.0090662737115526,0.0,0.0,0.0058510638297872,Other
Jamalpur,25.312717,86.490608,2025-10-01 09:56:51+00:00,0.4726601207098459,0.4720979316167158,0.115987460815047,0.3141457069828643,0.2125984251968503,0.6087134104833218,0.8341158059467919,0.8341158059467919,0.8341158059467919,0.3076923076923077,0.0999999999999943,0.402826855123675,0.5252808988764045,0.4,94,0.0081359191777913,0.0032154340836012,0.0,0.0,Other
Fatehpur,25.920074,80.809998,2025-10-01 09:56:59+00:00,0.0943158274029366,0.0929506120726044,0.041692789968652,0.1613454528955368,0.0203916818090046,0.3297481279782164,0.5438184663536776,0.5438184663536776,0.5438184663536776,0.5538461538461539,0.2000000000000028,0.1861012956419317,0.0,0.97,60,0.0333616394220562,0.0112540192926045,0.0,0.0047872340425531,Other
Dindigul,10.365581,77.970657,2025-10-01 09:50:09+00:00,0.011530492748401,0.0184043900379907,0.0586206896551724,0.0567915425218167,0.0195840904502321,0.1672566371681416,0.6306729264475746,0.6306729264475746,0.6306729264475746,0.3076923076923077,0.5,0.386336866902238,0.8539325842696629,0.99,55,0.2187644392272438,0.1864951768488746,0.0,0.0367021276595744,Other
Chakradharpur,22.668312,85.625511,2025-10-01 09:59:19+00:00,0.2534005945410323,0.2497256226255804,0.0724137931034482,0.2212072172900376,0.0954976781748435,0.2675289312457454,0.5195618153364634,0.5195618153364634,0.5195618153364634,0.6461538461538461,0.2000000000000028,0.2214369846878681,0.2808988764044943,0.47,36,0.0017670492151304,0.0,0.0,0.001063829787234,Other
Porbandar,21.640575,69.605965,2025-10-01 09:59:24+00:00,0.0371137735339158,0.0721823554242296,0.0021943573667711,0.0417429180719611,0.0012113870381586,0.1751531654186521,0.1807511737089202,0.1807511737089202,0.1807511737089202,0.9692307692307692,0.0,0.8987043580683157,0.6011235955056179,1.0,161,0.068265544413502,0.0257234726688102,0.0,0.0122340425531914,Other
Ghatal,22.663696,87.746803,2025-10-01 09:59:37+00:00,0.140257634447347,0.140818910932883,0.0620689655172413,0.2078222598647893,0.0345245305875227,0.2323349217154526,0.4037558685446012,0.4037558685446012,0.4037558685446012,0.7846153846153847,0.2000000000000028,0.4911660777385159,0.4185393258426966,0.85,64,0.000636886996266,0.0,0.0,0.001595744680851,Other
Khidirpur,22.542061,88.318954,2025-10-01 09:59:45+00:00,0.0858481217908296,0.0908400168847614,0.0191222570532915,0.1292215550749406,0.0119119725418938,0.2054458815520762,0.4866979655712053,0.4866979655712053,0.4866979655712053,0.676923076923077,0.2000000000000028,0.6372202591283864,0.4044943820224719,1.0,112,0.0245732232726001,0.0160771704180064,0.0,0.002127659574468,Other
Mandya,12.523731,76.894684,2025-10-01 09:59:47+00:00,0.1059364021259346,0.1533980582524271,0.290282131661442,0.2859692372842905,0.0716737330910559,0.0526208304969366,0.2449139280125194,0.2449139280125194,0.2449139280125194,0.6000000000000001,0.7000000000000028,0.5547703180212015,0.7443820224719101,1.0,130,0.1354696104998938,0.0691318327974276,0.0,0.0053191489361702,Vehicular
Dahanu,19.990751,72.743675,2025-10-01 10:01:21+00:00,0.0285559859472119,0.0602785985647952,0.0006269592476489,0.0032819613121795,0.0016151827175449,0.0291354663036078,0.2801251956181534,0.2801251956181534,0.2801251956181534,0.8461538461538463,0.4000000000000057,0.8810365135453476,0.5589887640449438,0.61,46,0.0245732232726001,0.0160771704180064,0.0,0.002127659574468,Other
Sri Muktsar Sahib,30.480042,74.518204,2025-10-01 10:01:23+00:00,0.4368975767948833,0.656732798649219,0.1134796238244514,0.2873304193953327,0.2796285079749646,0.8054458815520762,0.8654147104851331,0.8654147104851331,0.8654147104851331,0.123076923076923,0.2000000000000028,0.248527679623086,0.1713483146067415,0.0,201,0.0279668319242728,0.017684887459807,0.0,0.0,Industrial
Kanchipuram,12.834174,79.703644,2025-10-01 10:01:42+00:00,0.0827853346545356,0.1039257070493879,0.2206896551724137,0.1439676946112313,0.1265899454875832,0.2140912185159972,0.5907668231611896,0.5907668231611896,0.5907668231611896,0.3076923076923077,0.4000000000000057,0.4181389870435807,0.941011235955056,1.0,103,0.1566554691109807,0.4485530546623794,0.0,0.0244680851063829,Industrial
Dhanpur,22.633492,74.095993,2025-10-01 10:02:36+00:00,0.0975587784884244,0.1056141831996622,0.1595611285266457,0.1143997943102587,0.1253785584494245,0.160789652825051,0.3568075117370897,0.3568075117370897,0.3568075117370897,0.6615384615384616,0.4000000000000057,0.4511189634864547,0.6123595505617977,0.62,50,0.0001436117736678,0.0160771704180064,0.0,0.002127659574468,Other
Bengaluru,12.971599,77.594566,2025-10-01 10:02:42+00:00,0.0226105756238176,0.0365555086534402,0.1379310344827586,0.1157761006669792,0.022814455885322,0.0611980939414567,0.0985915492957747,0.0985915492957747,0.0985915492957747,0.6153846153846154,0.7999999999999972,0.5783274440518258,0.7556179775280899,0.97,25,0.909630730421969,1.0,0.2898550724637681,0.1813829787234042,Other
Muzaffarnagar,29.471397,77.696732,2025-10-01 10:04:14+00:00,0.5448157823619494,0.6325031658927817,0.4557993730407523,0.6948683434413709,0.2808398950131233,0.6904697072838666,0.5743348982785605,0.5743348982785605,0.5743348982785605,0.3538461538461539,0.2000000000000028,0.2367491166077739,0.8314606741573033,0.0,142,0.1146084393770995,0.0739549839228295,0.0,0.0196808510638297,Agricultural
Chhatarpur,24.916355,79.581184,2025-10-01 10:04:37+00:00,0.0537789388343392,0.053440270156184,0.0275862068965517,0.1044631648996506,0.0092873006258833,0.2948944860449285,0.4553990610328637,0.4553990610328637,0.4553990610328637,0.6000000000000001,0.2000000000000028,0.1542991755005889,0.8735955056179775,0.6900000000000001,41,0.1363874770533361,0.0144694533762057,0.0,0.0196808510638297,Other
Bongaigaon,26.500999,90.535233,2025-10-01 10:06:25+00:00,0.114854517611026,0.119797382861967,0.2733542319749216,0.4252181672439087,0.0205935796486977,0.1035398230088495,0.2801251956181534,0.2801251956181534,0.2801251956181534,0.9076923076923078,0.2999999999999971,0.2449941107184924,0.25,1.0,33,0.0090225657804363,0.0128617363344051,0.0,0.0,Other
RAK Tiles,31.604889,76.919533,2025-10-01 10:06:39+00:00,0.6517430862084497,0.8128324187420851,0.0846394984326018,0.4311922442868163,0.1790833838077932,0.7858407079646017,0.2370892018779342,0.2370892018779342,0.2370892018779342,0.5076923076923077,0.5,0.2073027090694935,0.7893258426966292,0.01,165,0.0245732232726001,0.0160771704180064,0.0,0.002127659574468,Other
Nilanga,18.125875,76.750969,2025-10-01 10:01:38+00:00,0.0301774614899558,0.0312368087800759,0.0307210031347962,0.0369031594549222,0.0125176660609731,0.1967324710687542,0.2151799687010955,0.2151799687010955,0.2151799687010955,0.6307692307692307,0.5,0.5276796230859836,0.7162921348314606,0.65,149,0.0072867365161032,0.0,0.0,0.0085106382978723,Other
Amreli,21.603176,71.222084,2025-10-01 10:06:49+00:00,0.0347716421943969,0.0606162937948501,0.006269592476489,0.0175592492324445,0.0040379567938623,0.1541865214431586,0.3740219092331769,0.3740219092331769,0.3740219092331769,0.676923076923077,0.2000000000000028,0.8987043580683157,0.5393258426966292,1.0,4,0.0348914170111267,0.1093247588424437,0.0,0.0079787234042553,Other
Bulandshahar,28.411331,77.848434,2025-10-01 10:07:29+00:00,0.1311593550130618,0.1464753060363022,0.112539184952978,0.4196524448343139,0.0205935796486977,0.3879509870660313,0.5500782472613459,0.5500782472613459,0.5500782472613459,0.2615384615384615,0.2000000000000028,0.1413427561837456,0.3595505617977528,0.15,34,0.0245732232726001,0.0160771704180064,0.0,0.002127659574468,Other
Kharagpur,22.34601,87.231972,2025-10-01 10:07:31+00:00,0.1299882893433024,0.1328830730265935,0.05141065830721,0.1646727869447511,0.0345245305875227,0.1573179033356024,0.3411580594679184,0.3411580594679184,0.3411580594679184,0.8615384615384616,0.2000000000000028,0.5053003533568905,0.4129213483146067,0.67,111,0.0118073853915606,0.0,0.0,0.001063829787234,Other
Arrah,25.556044,84.660332,2025-10-01 10:07:40+00:00,0.385460769300063,0.384972562262558,0.4692789968652037,0.2351971445424159,0.0801534423581667,0.0682777399591558,0.8505477308294214,0.8505477308294214,0.8505477308294214,0.323076923076923,0.0999999999999943,0.1484098939929329,0.5814606741573033,0.37,6,0.0216354259025687,0.0,0.0,0.001595744680851,Other
Seoni,22.086868,79.543488,2025-10-01 10:07:49+00:00,0.0740473831186379,0.0785141409877585,0.115987460815047,0.1170011645669172,0.1146779729456894,0.237576582709326,0.2425665101721443,0.2425665101721443,0.2425665101721443,0.8307692307692309,0.2999999999999971,0.3510011778563016,0.9382022471910112,0.73,189,0.1211084331331093,0.0112540192926045,0.0,0.001063829787234,Other
Siliguri,26.732311,88.410286,2025-10-01 10:08:48+00:00,0.1716061616070624,0.1777121148163782,0.1134796238244514,0.4245527004340659,0.0391681809004643,0.2451327433628318,0.7073552425665104,0.7073552425665104,0.7073552425665104,0.4307692307692308,0.2000000000000028,0.110718492343934,0.6067415730337078,0.49,195,0.0385254192839392,0.0369774919614147,0.0144927536231884,0.000531914893617,Other
Mangaluru,12.915605,74.855965,2025-10-01 10:08:58+00:00,0.011530492748401,0.0344449134655972,0.0018808777429467,0.0090291746699133,0.0016151827175449,0.1097345132743362,0.3012519561815339,0.3012519561815339,0.3012519561815339,0.8615384615384616,0.7000000000000028,0.4475853945818611,0.747191011235955,0.86,131,0.0245732232726001,0.0160771704180064,0.0,0.002127659574468,Other
Kandi,23.9468,88.049713,2025-10-01 10:09:00+00:00,0.9131609764886046,0.9320388349514562,0.6492163009404387,1.0,0.4126791843327276,0.1315861130020422,0.6017214397496089,0.6017214397496089,0.6017214397496089,0.6153846153846154,0.2000000000000028,0.2779740871613664,0.3146067415730337,0.95,104,0.0006805949273823,0.0016077170418006,0.0,0.0,Other
Khammam,17.247253,80.151443,2025-10-01 10:09:06+00:00,0.0326997567786685,0.038412832418742,0.0667711598746081,0.0617220466129251,0.0321017565112053,0.1470388019060585,0.3826291079812207,0.3826291079812207,0.3826291079812207,0.7846153846153847,0.2999999999999971,0.4958775029446408,0.8511235955056179,0.98,110,0.1605954269016072,0.0321543408360128,0.0144927536231884,0.0101063829787234,Other
Morshi,21.324196,78.013832,2025-10-01 10:09:39+00:00,0.054679758580308,0.0563951034191642,0.0288401253918495,0.0582888428439631,0.0276600040379567,0.2224642614023144,0.3841940532081376,0.3841940532081376,0.3841940532081376,0.7230769230769232,0.2999999999999971,0.32037691401649,0.747191011235955,0.65,139,0.0087290982429411,0.0,0.0,0.000531914893617,Other
Vijaypur,32.564522,75.023148,2025-10-01 10:09:47+00:00,0.6264300513467256,0.7880962431405656,0.186833855799373,0.5415236165096267,0.2166363819907127,0.9189244383934648,0.6408450704225357,0.6408450704225357,0.6408450704225357,0.3076923076923077,0.2999999999999971,0.3486454652532391,0.8370786516853932,0.0,217,0.0008491826616881,0.0160771704180064,0.0,0.002127659574468,Other
Santha,26.994154,83.034798,2025-10-01 10:09:55+00:00,0.3213224033870823,0.3386238919375263,0.1677115987460814,0.4726780501822472,0.1243690692509589,0.4080326752893125,0.6486697965571209,0.6486697965571209,0.6486697965571209,0.5692307692307692,0.0999999999999943,0.1778563015312132,0.800561797752809,0.88,186,0.0245732232726001,0.0160771704180064,0.0,0.002127659574468,Other
Chalisgaon,20.464079,74.996857,2025-10-01 10:09:57+00:00,0.0224304116746239,0.0262558041367665,0.1363636363636363,0.063673074305419,0.0694528568544316,0.0262763784887678,0.4945226917057905,0.4945226917057905,0.4945226917057905,0.4461538461538461,0.4000000000000057,0.2049469964664311,0.6882022471910112,0.6,38,0.0077487917879041,0.0032154340836012,0.0,0.000531914893617,Other
Etawah,26.811712,79.004692,2025-10-01 10:10:05+00:00,0.0935951716061616,0.0937948501477416,0.0401253918495297,0.1633418533250654,0.0080759135877246,0.2924438393464942,0.616588419405321,0.616588419405321,0.616588419405321,0.4615384615384615,0.2000000000000028,0.1672555948174323,0.2359550561797752,0.39,59,0.0933039449529827,0.0144694533762057,0.0,0.0047872340425531,Other
Simlapal,22.916706,87.070351,2025-10-01 10:10:20+00:00,0.380866588595622,0.3775432672013507,0.2420062695924764,0.3522134333550114,0.2432868968302038,0.1851599727705922,0.6353677621283256,0.6353677621283256,0.6353677621283256,0.6000000000000001,0.0999999999999943,0.1578327444051825,0.2696629213483146,0.7000000000000001,196,0.0096157448455861,0.0160771704180064,0.0,0.002127659574468,Other
Lakhimpur,27.94908,80.782402,2025-10-01 10:10:28+00:00,0.1880010809836951,0.2123258758970029,0.1670846394984325,0.5363511244876662,0.0585503735110034,0.3220558202859087,0.4553990610328637,0.4553990610328637,0.4553990610328637,0.6000000000000001,0.2000000000000028,0.2791519434628975,0.7949438202247191,0.98,122,0.2160857674488305,0.0273311897106109,0.0,0.0436170212765957,Vehicular
Masaurhi,25.35128,85.031143,2025-10-01 10:11:47+00:00,0.3820376542653814,0.3787252005065428,0.4169278996865204,0.1993678065306493,0.0963052695336159,0.128863172226004,0.827856025039124,0.827856025039124,0.827856025039124,0.323076923076923,0.0999999999999943,0.0906949352179034,0.7247191011235955,0.2,135,0.0009053785731233,0.0160771704180064,0.0,0.002127659574468,Other
Bhatta,23.00795,72.553757,2025-10-01 10:11:55+00:00,0.0221601657508332,0.0287885183621781,0.0373040752351097,0.0289629304738426,0.0173632142136079,0.1072838665759019,0.5633802816901408,0.5633802816901408,0.5633802816901408,0.4461538461538461,0.2000000000000028,0.7078916372202592,0.4915730337078651,0.36,26,0.0245732232726001,0.0160771704180064,0.0,0.002127659574468,Other
Sultanpur,26.264776,82.072708,2025-10-01 10:11:57+00:00,0.1698045221151247,0.1766990291262136,0.1106583072100313,0.3234773665663425,0.0801534423581667,0.3950987066031313,0.6150234741784042,0.6150234741784042,0.6150234741784042,0.5692307692307692,0.0999999999999943,0.1813898704358068,0.9353932584269664,0.86,203,0.1397592317394508,0.0064308681672025,0.0,0.000531914893617,Other
Kotulpur,23.012794,87.593948,2025-10-01 10:12:20+00:00,0.4013151968291145,0.3979738286196707,0.2094043887147335,0.3785144965894826,0.1847365233192004,0.2498978897208985,0.503912363067293,0.503912363067293,0.503912363067293,0.7076923076923078,0.2000000000000028,0.2626619552414605,0.3146067415730337,0.66,119,0.0007867427600934,0.0160771704180064,0.0,0.002127659574468,Other
Pithampur,22.610683,75.680862,2025-10-01 10:12:29+00:00,0.1023331231420592,0.1054453355846348,0.0423197492163009,0.0808995901329421,0.0234201494044013,0.234649421375085,0.2668231611893585,0.2668231611893585,0.2668231611893585,0.5692307692307692,0.4000000000000057,0.3451118963486455,0.6264044943820224,0.15,160,0.0085542665184759,0.0160771704180064,0.0,0.0,Other
Bela Pratapgarh,25.912968,81.991653,2025-10-01 10:12:38+00:00,0.1000810737771372,0.1013929928239763,0.0551724137931034,0.2414434580075319,0.0395719765798505,0.3252552756977535,0.6103286384976527,0.6103286384976527,0.6103286384976527,0.5692307692307692,0.0999999999999943,0.1401648998822144,0.7162921348314606,0.8,23,0.0245732232726001,0.0160771704180064,0.0,0.002127659574468,Other
Ghazipur,25.584042,83.577019,2025-10-01 10:12:41+00:00,0.1914241960183767,0.2279442802870409,0.5141065830721002,0.3088522209954779,0.6448616999798101,0.1539142273655547,0.6205007824726139,0.6205007824726139,0.6205007824726139,0.5846153846153846,0.0999999999999943,0.2685512367491166,0.9803370786516854,0.87,65,0.1204965220974812,0.0369774919614147,0.0,0.000531914893617,Industrial
Buxar,25.564711,83.977745,2025-10-01 10:13:12+00:00,0.2715070714350058,0.2932038834951456,0.4880877742946708,0.2877992710113583,0.4112658994548758,0.1424098025867937,0.7276995305164322,0.7276995305164322,0.7276995305164322,0.4461538461538461,0.0999999999999943,0.166077738515901,0.8314606741573033,0.6,35,0.0151728960875157,0.0160771704180064,0.0,0.002127659574468,Other
Baran,25.101145,76.513161,2025-10-01 10:13:24+00:00,0.053959102783533,0.0563951034191642,0.0203761755485893,0.0692992936977268,0.0187764990914597,0.262287270251872,0.6392801251956179,0.6392801251956179,0.6392801251956179,0.3076923076923077,0.2000000000000028,0.326266195524146,0.6825842696629213,0.02,16,0.0276359004458209,0.0064308681672025,0.0,0.0,Other
Saideep Enterprises,19.969227,73.743195,2025-10-01 10:14:16+00:00,0.0294568056931807,0.0444913465597298,0.1087774294670846,0.0516946717282475,0.1098324247930547,0.0027229407760381,0.0320813771517995,0.0320813771517995,0.0320813771517995,0.8461538461538463,0.5,0.729093050647821,0.6292134831460674,0.77,179,0.0245732232726001,0.0160771704180064,0.0,0.002127659574468,Other
Hazaribagh,23.99662,85.36911,2025-10-01 10:14:18+00:00,0.0764795964327538,0.0757281553398058,0.0119122257053291,0.1136435820263464,0.0066626287098728,0.214431586113002,0.2793427230046947,0.2793427230046947,0.2793427230046947,0.7230769230769232,0.2999999999999971,0.0965842167255595,0.1432584269662921,0.98,82,0.1383293579929318,0.0836012861736334,0.0,0.0,Other
Rudrapur,28.978298,79.399612,2025-10-01 10:14:48+00:00,0.2833978920817944,0.3057830308146897,0.1278996865203761,0.4609870082729624,0.0793458509993943,0.4560245064669843,0.5062597809076685,0.5062597809076685,0.5062597809076685,0.6153846153846154,0.2000000000000028,0.3592461719670201,0.7780898876404494,0.36,176,0.03000861670642,0.0160771704180064,0.0,0.002127659574468,Other
Success Point,20.112093,79.118698,2025-10-01 10:14:59+00:00,0.0609854968020898,0.0661038412832418,0.0564263322884012,0.0861779518746502,0.0082778114274177,0.0764465622872702,0.4460093896713617,0.4460093896713617,0.4460093896713617,0.7076923076923078,0.2999999999999971,0.2673733804475854,0.8230337078651685,0.93,202,0.0245732232726001,0.0160771704180064,0.0,0.002127659574468,Other
Balaghat,21.812876,80.18383,2025-10-01 10:15:02+00:00,0.0884604990541392,0.092781764457577,0.1724137931034482,0.1455254919160907,0.1764587118917827,0.179577944179714,0.4100156494522695,0.4100156494522695,0.4100156494522695,0.7846153846153847,0.2000000000000028,0.2815076560659599,0.9719101123595504,0.66,12,0.0320004495672914,0.0064308681672025,0.0,0.0430851063829787,Vehicular
Thodupuzha,9.897157,76.713409,2025-10-01 10:16:07+00:00,0.0106296730024322,0.0429717180244829,0.0094043887147335,0.0143226606572997,0.0068645265495659,0.1364193328795098,0.3669796557120504,0.3669796557120504,0.3669796557120504,0.6923076923076923,0.7999999999999972,0.2226148409893993,0.8651685393258427,1.0,213,0.0322002572523945,0.0096463022508038,0.0,0.0670212765957446,Other
Kothagudem,17.554356,80.619736,2025-10-01 10:16:18+00:00,0.0508062336726421,0.0575770367243562,0.1119122257053291,0.1104674904339146,0.0605693519079345,0.1253914227365554,0.320813771517997,0.320813771517997,0.320813771517997,0.8769230769230769,0.2999999999999971,0.4040047114252062,0.9101123595505618,0.99,117,0.0653058930779125,0.017684887459807,0.0,0.0042553191489361,Other
Debra,22.369043,87.55442,2025-10-01 10:16:58+00:00,0.1071975497702909,0.1100886449978894,0.0394984326018808,0.1472496559234108,0.0236220472440944,0.1742001361470388,0.3834115805946794,0.3834115805946794,0.3834115805946794,0.8461538461538463,0.2000000000000028,0.5371024734982333,0.4325842696629213,0.77,48,0.0205552156049802,0.0,0.0,0.000531914893617,Other
Khambhat,22.318083,72.618988,2025-10-01 10:17:06+00:00,0.0212593460048644,0.0281131279020683,0.0131661442006269,0.011524675206824,0.0030284675953967,0.0690946221919673,0.417057902973396,0.417057902973396,0.417057902973396,0.6461538461538461,0.2000000000000028,0.9634864546525326,0.5084269662921348,0.49,109,0.0245732232726001,0.0160771704180064,0.0,0.002127659574468,Other
Kalaburagi,17.320486,76.839752,2025-10-01 10:17:08+00:00,0.0185568867669579,0.0191642043056141,0.0344827586206896,0.0348765105340371,0.0042398546335554,0.2095983662355343,0.2363067292644756,0.2363067292644756,0.2363067292644756,0.6307692307692307,0.5,0.5571260306242639,0.7808988764044943,0.79,101,0.148251058356332,0.0691318327974276,0.0,0.100531914893617,Other
Palampur,32.110542,76.536224,2025-10-01 10:18:56+00:00,0.6011170164850014,0.7656395103419162,0.077115987460815,0.4129524039988506,0.1829194427619624,0.8053097345132743,0.0,0.0,0.0,0.7230769230769232,0.7999999999999972,0.2343934040047114,0.6207865168539326,0.13,153,0.0057319829663948,0.0016077170418006,0.0,0.0026595744680851,Other
Bargarh,21.342585,83.624199,2025-10-01 10:19:04+00:00,0.2561931357535357,0.249219079780498,0.044514106583072,0.3027269014957879,0.0242277407631738,0.3096664397549353,0.6087636932707354,0.6087636932707354,0.6087636932707354,0.5538461538461539,0.0999999999999943,0.1778563015312132,0.247191011235955,0.11,18,0.0597674738064612,0.3086816720257235,0.0,0.0361702127659574,Other
Jaunpur,25.748695,82.698441,2025-10-01 10:19:41+00:00,0.1625979641473741,0.1617560151962853,0.0485893416927899,0.287844643748393,0.0470421966484958,0.3850238257317902,0.6416275430359939,0.6416275430359939,0.6416275430359939,0.5538461538461539,0.0999999999999943,0.0341578327444051,0.8061797752808988,0.9,95,0.1600084918266169,0.0048231511254019,0.0,0.0031914893617021,Other
Bahraich,27.570839,81.598022,2025-10-01 10:20:12+00:00,0.1862895234663543,0.2107218235542422,0.2438871473354232,0.5939593762761084,0.1316373914799111,0.3061946902654867,0.4076682316118936,0.4076682316118936,0.4076682316118936,0.6000000000000001,0.2000000000000028,0.3745583038869259,0.848314606741573,0.99,11,0.1602395194625173,0.1398713826366559,0.0,0.0276595744680851,Industrial
Shegaon,20.792713,76.694328,2025-10-01 10:20:52+00:00,0.0167552472750202,0.0187420852680455,0.0244514106583072,0.0439056852039504,0.0062588330304865,0.1205582028590878,0.4366197183098592,0.4366197183098592,0.4366197183098592,0.6153846153846154,0.4000000000000057,0.2838633686690224,0.8679775280898876,0.53,191,0.0078861595714125,0.0160771704180064,0.0,0.002127659574468,Other
Ballari,15.139393,76.92144,2025-10-01 10:20:59+00:00,0.0014413115935501,0.0019417475728155,0.0373040752351097,0.0240626748740906,0.0056531395114072,0.0758339006126616,0.3239436619718312,0.3239436619718312,0.3239436619718312,0.4923076923076923,0.5999999999999943,0.6749116607773853,0.7668539325842696,0.99,13,0.1121108433133109,0.1061093247588424,0.0,0.0031914893617021,Other
Hapur,28.730579,77.775879,2025-10-01 10:21:26+00:00,0.1727772272768218,0.1878429717180245,0.1225705329153605,0.4481918964291656,0.0286694932364223,0.4527569775357385,0.5062597809076685,0.5062597809076685,0.5062597809076685,0.3384615384615385,0.2000000000000028,0.0742049469964664,0.9831460674157304,0.55,78,0.0797919502478864,0.0385852090032154,0.0,0.001063829787234,Other
Kashipur,29.210421,78.96183,2025-10-01 10:21:44+00:00,0.4023961805242771,0.426086956521739,0.2764890282131662,0.5626824362134939,0.2549969715324046,0.4292035398230088,0.5258215962441317,0.5258215962441317,0.5258215962441317,0.5692307692307692,0.2000000000000028,0.3274440518256774,0.8117977528089887,0.02,106,0.0507511520161844,0.045016077170418,0.0,0.0074468085106382,Industrial
Sikandra,26.367811,79.629158,2025-10-01 10:21:59+00:00,0.1969191964687865,0.1970451667370198,0.0742946708463949,0.1523011539799452,0.1364829396325459,0.3952348536419333,0.5915492957746478,0.5915492957746478,0.5915492957746478,0.5076923076923077,0.2000000000000028,0.0447585394581861,0.3932584269662921,0.65,194,0.0026287198571375,0.0160771704180064,0.0,0.002127659574468,Other
Palakkad,10.784703,76.653145,2025-10-01 10:22:07+00:00,0.018466804792361,0.050147741663149,0.0363636363636363,0.0327137434020478,0.0195840904502321,0.1538461538461538,0.4272300469483572,0.4272300469483572,0.4272300469483572,0.6307692307692307,0.7000000000000028,0.6760895170789164,0.7078651685393258,1.0,152,0.1700738039636849,0.1302250803858521,0.0,1.0,Other
Almora,29.594189,79.653893,2025-10-01 10:22:51+00:00,0.4895054499594631,0.5097509497678344,0.1815047021943573,0.4967104765649814,0.173430244296386,0.4759019741320626,0.0172143974960878,0.0172143974960878,0.0172143974960878,0.6307692307692307,0.5,0.1778563015312132,0.6432584269662921,0.22,1,0.0116887495785306,0.0,0.0,0.0037234042553191,Other
Dhar,22.601292,75.302467,2025-10-01 10:23:20+00:00,0.0550400864786956,0.0581680033769523,0.096551724137931,0.0661080778596167,0.045628911770644,0.1243022464261401,0.3200312989045384,0.3200312989045384,0.3200312989045384,0.5230769230769231,0.4000000000000057,0.2650176678445229,0.5842696629213483,0.15,52,0.0263496384729697,0.0434083601286173,0.0,0.0037234042553191,Other
Ameerpet,17.437462,78.448288,2025-10-01 10:24:13+00:00,0.0351319700927844,0.0401013085690164,0.093103448275862,0.052768493171403,0.1031697960831819,0.1835942818243703,0.3122065727699532,0.3122065727699532,0.3122065727699532,0.6307692307692307,0.7999999999999972,0.6065959952885749,0.7724719101123595,0.81,3,0.0245732232726001,0.0160771704180064,0.0,0.002127659574468,Other
Georai,19.263334,75.752426,2025-10-01 10:24:15+00:00,0.0,0.0,0.0213166144200626,0.0162736883497935,0.0024227740763173,0.066643975493533,0.4342723004694837,0.4342723004694837,0.4342723004694837,0.4923076923076923,0.4000000000000057,0.4723203769140165,0.747191011235955,0.71,63,0.0085230465676786,0.0064308681672025,0.0,0.001063829787234,Other
Kodad,16.99708,79.967361,2025-10-01 10:24:23+00:00,0.0345013962706062,0.0395947657239341,0.0586206896551724,0.044616524750828,0.0627902281445588,0.1620149761742682,0.445226917057903,0.445226917057903,0.445226917057903,0.7230769230769232,0.2999999999999971,0.386336866902238,0.9269662921348314,1.0,113,0.0245732232726001,0.0160771704180064,0.0,0.002127659574468,Other
Kalaigaon,26.57448,91.975243,2025-10-01 10:24:25+00:00,0.0472029546887667,0.0514140987758547,0.1025078369905956,0.3112267275669627,0.0072683222289521,0.1021783526208304,0.224569640062598,0.224569640062598,0.224569640062598,0.8307692307692309,0.4000000000000057,0.4369846878680801,0.199438202247191,1.0,102,0.0001248798031894,0.0160771704180064,0.0,0.002127659574468,Other
Newasa,19.551146,74.928162,2025-10-01 10:24:32+00:00,0.0046842626790379,0.0062473617560151,0.0536050156739811,0.0260893237949757,0.022814455885322,0.049217154526889,0.4342723004694837,0.4342723004694837,0.4342723004694837,0.4615384615384615,0.4000000000000057,0.5665488810365137,0.6657303370786517,0.59,148,1.248798031894302e-05,0.0,0.0,0.001063829787234,Other
Jalgaon,21.004194,75.563942,2025-10-01 10:24:38+00:00,0.0216196739032519,0.0260025327142254,0.1084639498432601,0.0670609053373463,0.0373511003432263,0.0720898570456092,0.5821596244131457,0.5821596244131457,0.5821596244131457,0.3846153846153846,0.2999999999999971,0.1696113074204947,0.696629213483146,0.51,91,0.14047729060779,0.0932475884244373,0.0,0.0037234042553191,Other
Mahasamund,21.109133,82.0979,2025-10-01 10:25:38+00:00,0.1173768128997387,0.1115238497256226,0.0658307210031348,0.1554167485896641,0.0589541691903896,0.2103471749489448,0.4514866979655714,0.4514866979655714,0.4514866979655714,0.8,0.2000000000000028,0.2614840989399294,0.199438202247191,0.41,125,0.015547535497084,0.0112540192926045,0.0,0.000531914893617,Other
Giridih,24.184713,86.302193,2025-10-01 10:26:09+00:00,0.4639221691739483,0.4678767412410299,0.1404388714733542,0.3762761082291021,0.2568140520896426,0.394009530292716,0.548513302034429,0.548513302034429,0.548513302034429,0.5692307692307692,0.2000000000000028,0.1319199057714959,0.1348314606741573,0.93,67,0.0278044881801266,0.0160771704180064,0.0,0.0037234042553191,Other
Purnea,25.771103,87.482185,2025-10-01 10:26:29+00:00,0.4809476623727592,0.4672857745884339,0.157680250783699,0.4115760976421301,0.0963052695336159,0.6057862491490811,0.7034428794992176,0.7034428794992176,0.7034428794992176,0.4461538461538461,0.0999999999999943,0.3521790341578328,0.3286516853932584,0.6900000000000001,164,0.0245732232726001,0.0160771704180064,0.0,0.002127659574468,Other
Kotputli,27.703669,76.201195,2025-10-01 10:26:31+00:00,0.1306188631654805,0.1697762769100886,0.1504702194357366,0.2495198051997156,0.0428023420149404,0.288359428182437,0.3912363067292645,0.3912363067292645,0.3912363067292645,0.5692307692307692,0.2999999999999971,0.2815076560659599,0.2528089887640449,0.84,118,0.0201805761954119,0.0385852090032154,0.0,0.0031914893617021,Other
Jhalawar,24.597349,76.16098,2025-10-01 10:26:57+00:00,0.0596342671831366,0.0634867032503165,0.0225705329153605,0.0629924832498979,0.0179689077326872,0.2272294077603812,0.4976525821596242,0.4976525821596242,0.4976525821596242,0.4461538461538461,0.2999999999999971,0.4134275618374559,0.7134831460674157,0.11,98,0.017083557076314,0.0080385852090032,0.0,0.0111702127659574,Other
Sitarganj,28.923548,79.700722,2025-10-01 10:27:35+00:00,0.2992523196108458,0.3214858590122414,0.1457680250783699,0.4685340068664076,0.0874217645871189,0.383934649421375,0.4913928012519564,0.4913928012519564,0.4913928012519564,0.5846153846153846,0.2000000000000028,0.353356890459364,0.7696629213483146,0.27,199,0.0100091162256328,0.0032154340836012,0.0,0.0,Other
Barauda,21.191774,81.718285,2025-10-01 10:27:43+00:00,0.0722457436267002,0.068467707893626,0.0626959247648902,0.1298718976391052,0.0359378154653745,0.149149081007488,0.4123630672926446,0.4123630672926446,0.4123630672926446,0.9076923076923078,0.2999999999999971,0.0824499411071849,0.1713483146067415,0.93,17,6.243990159471512e-06,0.0160771704180064,0.0,0.002127659574468,Other
Sangareddy,17.611629,78.08181,2025-10-01 10:27:47+00:00,0.0379245113052878,0.0407766990291262,0.0683385579937304,0.0526172507146206,0.0605693519079345,0.2240299523485364,0.2910798122065732,0.2910798122065732,0.2910798122065732,0.6153846153846154,0.5999999999999943,0.60188457008245,0.7640449438202247,0.5,184,0.1476890992419796,0.0755627009646302,0.0,0.0313829787234042,Other
Azamgarh,26.072067,83.185654,2025-10-01 10:28:23+00:00,0.2276371498063237,0.2433938370620514,0.1717868338557993,0.430315038037478,0.1160912578235412,0.3786249149081007,0.7120500782472614,0.7120500782472614,0.7120500782472614,0.4461538461538461,0.0999999999999943,0.1684334511189635,0.5,0.79,9,0.1423130237146746,0.0,0.0,0.001595744680851,Vehicular
Suratgarh,29.320511,73.899399,2025-10-01 10:28:47+00:00,0.2465543644716692,0.4806247361756015,0.0432601880877742,0.2322327923894795,0.0819705229154048,0.6470388019060584,1.0000000000000002,1.0000000000000002,1.0000000000000002,0.0,0.0999999999999943,0.4428739693757362,0.1797752808988764,0.0,205,0.0208112192015185,0.0080385852090032,0.0,0.0,Other
Gingee,12.252576,79.416924,2025-10-01 10:29:09+00:00,0.1398072245743626,0.1576192486281131,0.2015673981191222,0.1349536441869961,0.201494044013729,0.3282505105513955,0.5461658841940535,0.5461658841940535,0.5461658841940535,0.3538461538461539,0.5,0.5253239104829212,0.7528089887640449,1.0,66,0.0123193925846372,0.0160771704180064,0.0,0.002127659574468,Other
Samastipur,25.862968,85.781029,2025-10-01 10:29:17+00:00,0.3254661742185389,0.336935415787252,0.1300940438871473,0.2952101513936992,0.0849989905108015,0.3592239618788291,0.9162754303599374,0.9162754303599374,0.9162754303599374,0.2461538461538461,0.0,0.232037691401649,0.6235955056179775,0.45,182,0.0360403112004695,0.0209003215434083,0.0,0.0228723404255319,Agricultural
Ballia,25.758503,84.148911,2025-10-01 10:29:39+00:00,0.2553823979821638,0.2687209793161672,0.2094043887147335,0.2924272901889018,0.1037754896022612,0.2047651463580667,0.7629107981220662,0.7629107981220662,0.7629107981220662,0.4,0.0999999999999943,0.2237926972909305,0.7696629213483146,0.5700000000000001,14,0.0206426314672128,0.0128617363344051,0.0,0.076595744680851,Other
Jahanabad,25.213928,84.989555,2025-10-01 10:30:05+00:00,0.4031168363210521,0.4027859856479527,0.5115987460815046,0.2365280781621017,0.07712497476277,0.0420694349897889,0.7895148669796559,0.7895148669796559,0.7895148669796559,0.4307692307692308,0.0999999999999943,0.0447585394581861,0.946629213483146,0.22,90,0.0245732232726001,0.0160771704180064,0.0,0.002127659574468,Other
Kekri,25.973787,75.151535,2025-10-01 10:30:10+00:00,0.0776506621025132,0.0796116504854368,0.0385579937304075,0.0911992014398281,0.0163537250151423,0.328863172226004,0.527386541471049,0.527386541471049,0.527386541471049,0.4,0.2000000000000028,0.3851590106007068,0.5674157303370786,0.58,108,0.0060754024251657,0.0160771704180064,0.0,0.002127659574468,Other
Dholpur,26.702518,77.893394,2025-10-01 10:30:32+00:00,0.1214305017565985,0.1228366399324609,0.0912225705329153,0.1204343683358792,0.1116495053502927,0.3991831177671884,0.595461658841941,0.595461658841941,0.595461658841941,0.476923076923077,0.2000000000000028,0.1307420494699646,0.7303370786516854,0.58,54,0.0245732232726001,0.0160771704180064,0.0,0.002127659574468,Other
Hosur,12.735126,77.829338,2025-10-01 10:30:37+00:00,0.0196378704621205,0.0311523849725622,0.1557993730407523,0.1198445227544276,0.0232182515647082,0.0936691626957113,0.1361502347417842,0.1361502347417842,0.1361502347417842,0.6307692307692307,0.7999999999999972,0.6089517078916372,0.7612359550561797,1.0,86,0.0772881101939383,0.0803858520900321,0.0,0.0026595744680851,Other
Bisalpur,28.293783,79.804459,2025-10-01 10:30:55+00:00,0.1883614088820826,0.2207682566483748,0.2147335423197491,0.583644640723544,0.0522915404805168,0.1940095302927161,0.1392801251956184,0.1392801251956184,0.1392801251956184,0.7230769230769232,0.2000000000000028,0.3274440518256774,0.7050561797752809,0.85,31,0.0034841465089851,0.022508038585209,0.0,0.0,Other
Jhansi,25.436298,78.567352,2025-10-01 10:31:03+00:00,0.073236645347266,0.0749683410721823,0.0520376175548589,0.1030566100515736,0.0169594185342216,0.2938733832539141,0.4702660406885763,0.4702660406885763,0.4702660406885763,0.5846153846153846,0.2000000000000028,0.2167255594817433,0.8146067415730337,0.73,99,0.1101564743933963,0.0128617363344051,0.0,0.000531914893617,Other
Korba,22.363848,82.73484,2025-10-01 10:31:36+00:00,0.3974416719214484,0.3918108906711692,0.0981191222570532,0.3116502064459535,0.1475873208156672,0.4102791014295439,0.4733959311424101,0.4733959311424101,0.4733959311424101,0.676923076923077,0.2000000000000028,0.0694935217903416,0.3230337078651685,0.88,116,0.0691709229866253,0.0482315112540192,0.0,0.0037234042553191,Industrial
Tadepalligudem,16.814524,81.526558,2025-10-01 10:32:16+00:00,0.0939554995045491,0.0983537357534824,0.1166144200626959,0.1191639316989065,0.0722794266101352,0.1961198093941457,0.1690140845070422,0.1690140845070422,0.1690140845070422,0.9692307692307692,0.2000000000000028,0.3839811542991755,0.8679775280898876,1.0,210,0.0171959488991845,0.0016077170418006,0.0,0.000531914893617,Other
Rajnandgaon,21.097855,81.033707,2025-10-01 10:32:25+00:00,0.1323304206828213,0.1271422541156606,0.0586206896551724,0.1458582253210121,0.0248334342822531,0.1269571136827774,0.3638497652582162,0.3638497652582162,0.3638497652582162,0.7538461538461538,0.2000000000000028,0.1083627797408716,0.7780898876404494,0.5,168,0.0251570363525107,0.0144694533762057,0.0,0.0037234042553191,Other
Gumla,23.041924,84.540833,2025-10-01 10:32:42+00:00,0.6688586613818575,0.6574926129168424,0.3391849529780564,0.2537092212525901,0.3248536240662224,0.2415248468345813,0.2730829420970269,0.2730829420970269,0.2730829420970269,0.7384615384615385,0.2999999999999971,0.2237926972909305,0.3342696629213483,0.73,74,0.0085168025775191,0.0048231511254019,0.0,0.001063829787234,Other
Kuchaman City,27.147869,74.859489,2025-10-01 10:33:19+00:00,0.0744977929916223,0.0899113550021105,0.125705329153605,0.1513180780108592,0.0349283262669089,0.2466984343090537,0.4898278560250395,0.4898278560250395,0.4898278560250395,0.4923076923076923,0.2000000000000028,0.0318021201413427,0.1853932584269663,0.73,120,0.0245732232726001,0.0160771704180064,0.0,0.002127659574468,Other
Sankari,11.477696,77.873886,2025-10-01 10:33:22+00:00,0.0403567246194036,0.0612072604474461,0.3031347962382445,0.196963051467808,0.0426004441752473,0.0618788291354663,0.4154929577464792,0.4154929577464792,0.4154929577464792,0.5230769230769231,0.5,0.088339222614841,0.1882022471910112,0.95,185,0.0340172583888007,0.0192926045016077,0.0,0.001063829787234,Vehicular
Forbesganj,26.298552,87.265388,2025-10-01 10:33:32+00:00,0.7229979281145843,0.7291684254959898,0.4695924764890282,0.7391370105415993,0.3406016555622854,0.378284547311096,0.6768388106416279,0.6768388106416279,0.6768388106416279,0.4307692307692308,0.0999999999999943,0.1213191990577149,0.5617977528089887,0.54,61,0.0079673314434856,0.0289389067524115,0.0,0.0829787234042553,Agricultural
Thandalam,12.999464,80.117729,2025-10-01 10:33:40+00:00,0.1353031258445184,0.1725622625580413,0.4495297805642633,0.2856062553880126,0.1433474661821118,0.1677331518039482,0.5751173708920192,0.5751173708920192,0.5751173708920192,0.3384615384615385,0.4000000000000057,0.4923439340400471,0.8904494382022472,1.0,211,0.0245732232726001,0.0160771704180064,0.0,0.002127659574468,Other
Sahibzada Ajit Singh Nagar,30.704649,76.717873,2025-10-01 10:33:43+00:00,0.6234573461850283,0.7327986492190796,0.2385579937304075,0.4696834495379543,0.1019584090450232,0.4769230769230768,0.5610328638497657,0.5610328638497657,0.5610328638497657,0.4461538461538461,0.2000000000000028,0.3215547703180212,0.8595505617977528,0.0,178,0.1909911709979145,0.1189710610932476,0.0144927536231884,0.001595744680851,Vehicular
Etah,27.55875,78.662567,2025-10-01 10:34:04+00:00,0.141789028015494,0.1458843393837061,0.0626959247648902,0.2362860902312497,0.0159499293357561,0.3191286589516678,0.4381846635367765,0.4381846635367765,0.4381846635367765,0.5230769230769231,0.2000000000000028,0.209658421672556,0.1825842696629213,0.96,58,0.0869475629706407,0.0257234726688102,0.0,0.002127659574468,Other
Nabadwip,23.406979,88.365593,2025-10-01 10:34:23+00:00,0.6048103774434735,0.6637399746728576,0.6087774294670846,0.8728958393200141,0.3819907126993741,0.0479918311776718,0.3881064162754304,0.3881064162754304,0.3881064162754304,0.8,0.2999999999999971,0.4958775029446408,0.3876404494382022,0.98,143,0.0086291944003896,0.0112540192926045,0.0434782608695652,0.0090425531914893,Other
Sri Ganganagar,29.903839,73.87719,2025-10-01 10:34:30+00:00,0.294568056931808,0.618573237653018,0.0335423197492162,0.2256537455194422,0.0583484756713103,0.6362151123213069,0.9444444444444448,0.9444444444444448,0.9444444444444448,0.0307692307692307,0.0999999999999943,0.1837455830388693,0.2219101123595505,0.0,200,0.1049240106397592,0.0241157556270096,0.0,0.002127659574468,Other
Hanamkonda,18.007202,79.558296,2025-10-01 10:35:15+00:00,0.0396360688226285,0.0494723512030392,0.1153605015673981,0.0997444002480376,0.0444175247324853,0.1597004765146358,0.3654147104851331,0.3654147104851331,0.3654147104851331,0.6923076923076923,0.2999999999999971,0.5111896348645465,0.8707865168539325,0.68,77,0.0245732232726001,0.0160771704180064,0.0,0.002127659574468,Other
Ramagundam,18.76182,79.480904,2025-10-01 10:35:17+00:00,0.0476533645617512,0.0554664415365132,0.1275862068965517,0.1109363420499403,0.0551181102362204,0.1580667120490129,0.3755868544600942,0.3755868544600942,0.3755868544600942,0.7846153846153847,0.2999999999999971,0.5335689045936396,0.797752808988764,0.49,169,0.0245732232726001,0.0160771704180064,0.0,0.002127659574468,Other
Mau,25.949638,83.558647,2025-10-01 10:35:20+00:00,0.1781821457526348,0.2023638666103841,0.2592476489028213,0.4589603593520774,0.1441550575408842,0.2142273655547991,0.6909233176838814,0.6909233176838814,0.6909233176838814,0.4923076923076923,0.0999999999999943,0.0294464075382803,0.7191011235955056,0.88,136,0.0268554016758869,0.0964630225080385,0.0,0.0324468085106382,Industrial
Gangakhed,18.966354,76.748077,2025-10-01 10:35:33+00:00,0.0131519682911449,0.0153651329674968,0.0291536050156739,0.0353453621500627,0.0054512416717141,0.1147719537100068,0.4147104851330205,0.4147104851330205,0.4147104851330205,0.5692307692307692,0.4000000000000057,0.2956419316843346,0.8398876404494382,0.8300000000000001,62,0.0037901020267992,0.0209003215434083,0.0,0.001063829787234,Other
Rahon,31.052128,76.1175,2025-10-01 10:35:39+00:00,0.700837762363751,0.8055719712959053,0.1238244514106583,0.3994010798711415,0.2063395921663637,0.7125255275697753,0.6416275430359939,0.6416275430359939,0.6416275430359939,0.3538461538461539,0.2000000000000028,0.2049469964664311,0.952247191011236,0.0,166,0.0245732232726001,0.0160771704180064,0.0,0.002127659574468,Other
Mansa,23.426788,72.657074,2025-10-01 10:35:41+00:00,0.0258535267093054,0.0393414943013929,0.0664576802507837,0.0453727370347404,0.0292751867555017,0.1068073519400952,0.4577464788732397,0.4577464788732397,0.4577464788732397,0.5846153846153846,0.2000000000000028,0.5724381625441697,0.4382022471910112,0.74,133,0.0308640433582676,0.0434083601286173,0.0,0.002127659574468,Other
